$GPGSA,A,3,21,03,19,30,06,16,22,18,07,,,,2.0,1.1,1.6*33
$GPGSV,3,1,12,06,80,342,44,16,69,204,43,03,68,305,45,18,42,085,45*73
$GPGSV,3,2,12,30,41,175,44,22,38,144,46,21,37,057,41,19,34,288,43*7C
$GPGSV,3,3,12,07,16,311,40,08,02,339,,15,02,052,,11,00,248,*71
$GPRMC,080200.000,A,4550.0515,N,00113.6746,E,18.47,108.92,050112,,*33
$GPGGA,080201.000,4550.0497,N,00113.6816,E,1,09,1.1,280.1,M,48.8,M,,0000*55
$GPGSA,A,3,21,03,19,30,06,16,22,18,07,,,,2.0,1.1,1.6*33
$GPRMC,080201.000,A,4550.0497,N,00113.6816,E,18.86,109.30,050112,,*37
$GPGGA,080202.000,4550.0479,N,00113.6888,E,1,09,1.1,280.4,M,48.8,M,,0000*54
$GPGSA,A,3,21,03,19,30,06,16,22,18,07,,,,2.0,1.1,1.6*33
$GPRMC,080202.000,A,4550.0479,N,00113.6888,E,19.42,110.58,050112,,*3C
$GPGGA,080203.000,4550.0460,N,00113.6962,E,1,09,1.1,280.8,M,48.8,M,,0000*54
$GPGSA,A,3,21,03,19,30,06,16,22,18,07,,,,2.0,1.1,1.6*33
$GPRMC,080203.000,A,4550.0460,N,00113.6962,E,20.31,110.16,050112,,*34
$GPGGA,080204.000,4550.0440,N,00113.7039,E,1,09,1.1,281.3,M,48.8,M,,0000*5D
$GPGSA,A,3,21,03,19,30,06,16,22,18,07,,,,2.0,1.1,1.6*33
$GPRMC,080204.000,A,4550.0440,N,00113.7039,E,21.18,109.13,050112,,*30
$GPGGA,080205.000,4550.0420,N,00113.7120,E,1,09,1.1,281.7,M,48.8,M,,0000*57
$GPGSA,A,3,21,03,19,30,06,16,22,18,07,,,,2.0,1.1,1.7*32
$GPGSV,3,1,12,06,80,342,44,16,69,204,43,03,68,305,45,18,42,085,45*73
$GPGSV,3,2,12,30,41,175,41,22,38,144,40,21,37,057,42,19,34,288,43*7C
$GPGSV,3,3,12,07,16,311,40,08,02,339,,15,02,052,,11,00,248,*71
$GPRMC,080205.000,A,4550.0420,N,00113.7120,E,22.17,110.05,050112,,*3D
$GPGGA,080206.000,4550.0399,N,00113.7205,E,1,09,1.1,282.2,M,48.8,M,,0000*53
$GPGSA,A,3,21,03,19,30,06,16,22,18,07,,,,2.0,1.1,1.7*32
$GPRMC,080206.000,A,4550.0399,N,00113.7205,E,22.97,110.15,050112,,*36
$GPGGA,080207.000,4550.0376,N,00113.7292,E,1,09,1.1,282.8,M,48.8,M,,0000*57
$GPGSA,A,3,21,03,19,30,06,16,22,18,07,,,,2.0,1.1,1.7*32
$GPRMC,080207.000,A,4550.0376,N,00113.7292,E,24.00,111.44,050112,,*35
$GPGGA,080208.000,4550.0351,N,00113.7382,E,1,09,1.1,283.2,M,48.8,M,,0000*56
$GPGSA,A,3,21,03,19,30,06,16,22,18,07,,,,2.0,1.1,1.7*32
$GPRMC,080208.000,A,4550.0351,N,00113.7382,E,24.12,111.57,050112,,*3E
$GPGGA,080209.000,4550.0327,N,00113.7470,E,1,09,1.1,283.7,M,48.8,M,,0000*59
$GPGSA,A,3,21,03,19,30,06,16,22,18,07,,,,2.0,1.1,1.7*32
$GPRMC,080209.000,A,4550.0327,N,00113.7470,E,23.49,112.12,050112,,*3F
$GPGGA,080210.000,4550.0302,N,00113.7558,E,1,09,1.1,284.2,M,48.8,M,,0000*5F
$GPGSA,A,3,21,03,19,30,06,16,22,18,07,,,,2.0,1.1,1.7*32
$GPGSV,3,1,12,06,80,342,42,16,69,204,44,03,68,305,44,18,42,085,45*73
$GPGSV,3,2,12,30,41,175,46,22,38,144,46,21,37,057,43,19,34,288,43*7C
$GPGSV,3,3,12,07,16,311,41,08,02,339,,15,02,052,,11,00,248,*70
$GPRMC,080210.000,A,4550.0302,N,00113.7558,E,24.01,112.41,050112,,*36
$GPGGA,080211.000,4550.0277,N,00113.7647,E,1,09,1.1,284.7,M,48.8,M,,0000*55
$GPGSA,A,3,21,03,19,30,06,16,22,18,07,,,,2.0,1.1,1.7*32
$GPRMC,080211.000,A,4550.0277,N,00113.7647,E,24.48,111.98,050112,,*33
$GPGGA,080212.000,4550.0251,N,00113.7739,E,1,09,1.1,285.2,M,48.8,M,,0000*5E
$GPGSA,A,3,21,03,19,30,06,16,22,18,07,,,,2.0,1.1,1.7*32
$GPRMC,080212.000,A,4550.0251,N,00113.7739,E,24.79,111.15,050112,,*3B
$GPGGA,080213.000,4550.0226,N,00113.7832,E,1,09,1.1,285.7,M,48.8,M,,0000*5E
$GPGSA,A,3,21,03,19,30,06,16,22,18,07,,,,2.0,1.1,1.7*32
$GPRMC,080213.000,A,4550.0226,N,00113.7832,E,25.04,111.11,050112,,*31
$GPGGA,080214.000,4550.0202,N,00113.7925,E,1,09,1.1,286.3,M,48.8,M,,0000*5F
$GPGSA,A,3,21,03,19,30,06,16,22,18,07,,,,2.0,1.1,1.7*32
$GPRMC,080214.000,A,4550.0202,N,00113.7925,E,25.12,110.21,050112,,*32
$GPGGA,080215.000,4550.0178,N,00113.8020,E,1,09,1.1,286.8,M,48.8,M,,0000*58
$GPGSA,A,3,21,03,19,30,06,16,22,18,07,,,,2.0,1.1,1.7*32
$GPGSV,3,1,12,06,80,342,43,16,69,204,43,03,68,305,44,18,42,085,46*76
$GPGSV,3,2,12,30,41,175,46,22,38,144,46,21,37,057,42,19,34,288,44*7A
$GPGSV,3,3,12,07,16,311,40,08,02,339,,15,02,052,,11,00,248,*71
$GPRMC,080215.000,A,4550.0178,N,00113.8020,E,25.21,109.21,050112,,*36
$GPGGA,080216.000,4550.0155,N,00113.8115,E,1,09,1.1,287.4,M,48.8,M,,0000*5E
$GPGSA,A,3,21,03,19,30,06,16,22,18,07,,,,2.0,1.1,1.7*32
$GPRMC,080216.000,A,4550.0155,N,00113.8115,E,25.27,109.20,050112,,*3A
$GPGGA,080217.000,4550.0132,N,00113.8209,E,1,09,1.1,288.0,M,48.8,M,,0000*5B
$GPGSA,A,3,21,03,19,30,06,16,22,18,07,,,,2.0,1.1,1.7*32
$GPRMC,080217.000,A,4550.0132,N,00113.8209,E,25.02,110.53,050112,,*3F
$GPGGA,080218.000,4550.0108,N,00113.8301,E,1,09,1.1,288.7,M,48.8,M,,0000*53
$GPGSA,A,3,21,03,19,30,06,16,22,18,07,,,,2.0,1.1,1.7*32
$GPRMC,080218.000,A,4550.0108,N,00113.8301,E,24.31,111.35,050112,,*30
$GPGGA,080219.000,4550.0084,N,00113.8389,E,1,09,1.1,289.3,M,48.8,M,,0000*52
$GPGSA,A,3,21,03,19,30,06,16,22,18,07,,,,2.0,1.1,1.7*32
$GPRMC,080219.000,A,4550.0084,N,00113.8389,E,23.27,111.39,050112,,*38
$GPGGA,080220.000,4550.0060,N,00113.8474,E,1,09,1.1,289.8,M,48.8,M,,0000*5C
$GPGSA,A,3,21,03,19,30,06,16,22,18,07,,,,2.0,1.1,1.7*32
$GPGSV,3,1,12,06,80,343,43,16,69,203,44,03,69,305,44,18,42,084,46*77
$GPGSV,3,2,12,30,41,175,40,22,38,144,48,21,37,057,42,19,34,288,44*72
$GPGSV,3,3,12,07,16,311,41,08,03,339,,15,02,052,,11,00,248,*71
$GPRMC,080220.000,A,4550.0060,N,00113.8474,E,22.35,111.79,050112,,*3B
$GPGGA,080221.000,4550.0037,N,00113.8555,E,1,09,1.1,290.3,M,48.8,M,,0000*5E
$GPGSA,A,3,21,03,19,30,06,16,22,18,07,,,,2.0,1.1,1.7*32
$GPRMC,080221.000,A,4550.0037,N,00113.8555,E,21.77,112.51,050112,,*36
$GPGGA,080222.000,4550.0013,N,00113.8634,E,1,09,1.1,290.9,M,48.8,M,,0000*55
$GPGSA,A,3,21,03,19,30,06,16,22,18,07,,,,2.0,1.1,1.7*32
$GPRMC,080222.000,A,4550.0013,N,00113.8634,E,21.64,113.80,050112,,*38
$GPGGA,080223.000,4549.9988,N,00113.8712,E,1,09,1.1,291.5,M,48.8,M,,0000*56
$GPGSA,A,3,21,03,19,30,06,16,22,18,07,,,,2.0,1.1,1.7*32
$GPRMC,080223.000,A,4549.9988,N,00113.8712,E,21.62,116.51,050112,,*39
$GPGGA,080224.000,4549.9960,N,00113.8788,E,1,09,1.1,292.1,M,48.8,M,,0000*53
$GPGSA,A,3,21,03,19,30,06,16,22,18,07,,,,2.0,1.1,1.7*32
$GPRMC,080224.000,A,4549.9960,N,00113.8788,E,21.80,120.00,050112,,*36
$GPGGA,080225.000,4549.9927,N,00113.8861,E,1,09,1.1,292.8,M,48.8,M,,0000*50
$GPGSA,A,3,21,03,19,30,06,16,22,18,07,,,,2.0,1.1,1.7*32
$GPGSV,3,1,12,06,80,343,43,16,69,203,43,03,69,305,44,18,42,084,47*71
$GPGSV,3,2,12,30,41,175,42,22,38,144,47,21,37,057,32,19,34,288,44*78
$GPGSV,3,3,12,07,16,311,41,08,03,339,,15,02,052,,11,00,248,*71
$GPRMC,080225.000,A,4549.9927,N,00113.8861,E,21.90,122.98,050112,,*3E
$GPGGA,080226.000,4549.9893,N,00113.8934,E,1,09,1.1,293.3,M,48.8,M,,0000*56
$GPGSA,A,3,21,03,19,30,06,16,22,18,07,,,,2.0,1.1,1.7*32
$GPRMC,080226.000,A,4549.9893,N,00113.8934,E,22.12,123.35,050112,,*3D
$GPGGA,080227.000,4549.9859,N,00113.9008,E,1,09,1.1,293.7,M,48.8,M,,0000*52
$GPGSA,A,3,21,03,19,30,06,16,22,18,07,,,,2.0,1.1,1.7*32
$GPRMC,080227.000,A,4549.9859,N,00113.9008,E,22.32,123.68,050112,,*37
$GPGGA,080228.000,4549.9825,N,00113.9081,E,1,09,1.1,294.0,M,48.8,M,,0000*57
$GPGSA,A,3,21,03,19,30,06,16,22,18,07,,,,2.0,1.1,1.7*32
$GPRMC,080228.000,A,4549.9825,N,00113.9081,E,21.76,123.96,050112,,*30
$GPGGA,080229.000,4549.9791,N,00113.9151,E,1,09,1.1,294.4,M,48.8,M,,0000*5E
$GPGSA,A,3,21,03,19,30,06,16,22,18,07,,,,2.0,1.1,1.7*32
$GPRMC,080229.000,A,4549.9791,N,00113.9151,E,20.86,124.52,050112,,*3C
$GPGGA,080230.000,4549.9758,N,00113.9218,E,1,09,1.1,294.7,M,48.8,M,,0000*5E
$GPGSA,A,3,21,03,19,30,06,16,22,18,07,,,,2.0,1.1,1.7*32
$GPGSV,3,1,12,06,80,343,43,16,69,203,43,03,69,305,44,18,42,084,47*71
$GPGSV,3,2,12,30,41,175,45,22,38,144,47,21,37,057,41,19,34,288,44*7B
$GPGSV,3,3,12,07,16,311,41,08,03,339,,15,02,052,,11,00,248,*71
$GPRMC,080230.000,A,4549.9758,N,00113.9218,E,20.44,125.61,050112,,*30
$GPGGA,080231.000,4549.9725,N,00113.9284,E,1,09,1.1,295.1,M,48.8,M,,0000*57
$GPGSA,A,3,21,03,19,30,06,16,22,18,07,,,,2.0,1.1,1.7*32
$GPRMC,080231.000,A,4549.9725,N,00113.9284,E,20.76,125.90,050112,,*31
$GPGGA,080232.000,4549.9690,N,00113.9351,E,1,09,1.1,295.5,M,48.8,M,,0000*56
$GPGSA,A,3,21,03,19,30,06,16,22,18,07,,,,2.0,1.1,1.7*32
$GPRMC,080232.000,A,4549.9690,N,00113.9351,E,20.98,125.93,050112,,*37
$GPGGA,080233.000,4549.9657,N,00113.9418,E,1,09,1.1,295.8,M,48.8,M,,0000*5B
$GPGSA,A,3,21,03,19,30,06,16,22,18,07,,,,2.0,1.1,1.7*32
$GPRMC,080233.000,A,4549.9657,N,00113.9418,E,20.30,125.46,050112,,*3D
$GPGGA,080234.000,4549.9625,N,00113.9481,E,1,09,1.1,296.0,M,48.8,M,,0000*52
$GPGSA,A,3,21,03,19,30,06,16,22,18,07,,,,2.0,1.1,1.7*32
$GPRMC,080234.000,A,4549.9625,N,00113.9481,E,18.92,125.18,050112,,*37
$GPGGA,080235.000,4549.9596,N,00113.9540,E,1,09,1.1,296.2,M,48.8,M,,0000*56
$GPGSA,A,3,21,03,19,30,06,16,22,18,07,,,,2.0,1.1,1.7*32
$GPGSV,3,1,12,06,80,343,43,16,69,203,42,03,69,305,45,18,42,084,47*71
$GPGSV,3,2,12,30,41,175,46,22,38,144,47,21,37,057,42,19,34,288,44*7B
$GPGSV,3,3,12,07,16,311,40,08,03,339,,15,02,052,,11,00,248,*70
$GPRMC,080235.000,A,4549.9596,N,00113.9540,E,17.67,125.08,050112,,*35
$GPGGA,080236.000,4549.9567,N,00113.9597,E,1,09,1.1,296.5,M,48.8,M,,0000*56
$GPGSA,A,3,21,03,19,30,06,16,22,18,07,,,,2.0,1.1,1.7*32
$GPRMC,080236.000,A,4549.9567,N,00113.9597,E,17.56,125.79,050112,,*36
$GPGGA,080237.000,4549.9539,N,00113.9654,E,1,09,1.1,296.6,M,48.8,M,,0000*53
$GPGSA,A,3,21,03,19,30,06,16,22,18,07,,,,2.0,1.1,1.7*32
$GPRMC,080237.000,A,4549.9539,N,00113.9654,E,17.73,126.18,050112,,*33
$GPGGA,080238.000,4549.9510,N,00113.9709,E,1,09,1.1,296.8,M,48.8,M,,0000*50
$GPGSA,A,3,21,03,19,30,06,16,22,18,07,,,,2.0,1.1,1.7*32
$GPRMC,080238.000,A,4549.9510,N,00113.9709,E,16.88,126.41,050112,,*37
$GPGGA,080239.000,4549.9485,N,00113.9757,E,1,09,1.1,297.0,M,48.8,M,,0000*5E
$GPGSA,A,3,21,03,19,30,06,16,22,18,07,,,,2.0,1.1,1.7*32
$GPRMC,080239.000,A,4549.9485,N,00113.9757,E,13.24,125.87,050112,,*3A
$GPGGA,080240.000,4549.9465,N,00113.9796,E,1,09,1.1,297.1,M,48.8,M,,0000*52
$GPGSA,A,3,21,03,19,30,06,16,22,18,07,,,,2.0,1.1,1.7*32
$GPGSV,3,1,12,06,80,343,44,16,69,203,42,03,69,305,44,18,42,084,46*76
$GPGSV,3,2,12,30,41,175,25,22,38,144,37,21,37,057,42,19,34,288,44*79
$GPGSV,3,3,12,07,16,311,40,08,03,339,,15,02,052,16,11,00,248,*77
$GPRMC,080240.000,A,4549.9465,N,00113.9796,E,11.33,125.97,050112,,*32
$GPGGA,080241.000,4549.9448,N,00113.9830,E,1,09,1.1,297.1,M,48.8,M,,0000*5F
$GPGSA,A,3,21,03,19,30,06,16,22,18,07,,,,2.0,1.1,1.7*32
$GPRMC,080241.000,A,4549.9448,N,00113.9830,E,10.49,125.64,050112,,*3F
$GPGGA,080242.000,4549.9432,N,00113.9864,E,1,09,1.1,297.2,M,48.8,M,,0000*53
$GPGSA,A,3,21,03,19,30,06,16,22,18,07,,,,2.0,1.1,1.7*32
$GPRMC,080242.000,A,4549.9432,N,00113.9864,E,10.15,124.29,050112,,*31
$GPGGA,080243.000,4549.9414,N,00113.9899,E,1,09,1.1,297.3,M,48.8,M,,0000*55
$GPGSA,A,3,21,03,19,30,06,16,22,18,07,,,,2.0,1.1,1.7*32
$GPRMC,080243.000,A,4549.9414,N,00113.9899,E,11.65,124.75,050112,,*39
$GPGGA,080244.000,4549.9395,N,00113.9940,E,1,09,1.1,297.4,M,48.8,M,,0000*5E
$GPGSA,A,3,21,03,19,30,06,16,22,18,07,,,,2.0,1.1,1.7*32
$GPRMC,080244.000,A,4549.9395,N,00113.9940,E,13.67,123.65,050112,,*33
$GPGGA,080245.000,4549.9372,N,00113.9989,E,1,08,1.3,297.5,M,48.8,M,,0000*51
$GPGSA,A,3,21,03,19,06,16,22,18,07,,,,,2.1,1.3,1.7*32
$GPGSV,3,1,12,06,80,343,44,16,69,203,44,03,69,305,45,18,42,084,46*71
$GPGSV,3,2,12,30,41,175,,22,38,144,45,21,37,057,42,19,34,288,43*7C
$GPGSV,3,3,12,07,16,311,40,08,03,339,,15,02,052,18,11,00,248,*79
$GPRMC,080245.000,A,4549.9372,N,00113.9989,E,15.91,122.13,050112,,*31
$GPGGA,080246.000,4549.9348,N,00114.0046,E,1,08,1.3,297.5,M,48.8,M,,0000*5F
$GPGSA,A,3,21,03,19,06,16,22,18,07,,,,,2.1,1.3,1.7*32
$GPRMC,080246.000,A,4549.9348,N,00114.0046,E,17.80,120.62,050112,,*39
$GPGGA,080247.000,4549.9323,N,00114.0109,E,1,09,1.1,297.6,M,48.8,M,,0000*59
$GPGSA,A,3,21,03,19,30,06,16,22,18,07,,,,2.0,1.1,1.7*32
$GPRMC,080247.000,A,4549.9323,N,00114.0109,E,19.05,119.39,050112,,*38
$GPGGA,080248.000,4549.9297,N,00114.0175,E,1,09,1.1,297.7,M,48.8,M,,0000*52
$GPGSA,A,3,21,03,19,30,06,16,22,18,07,,,,2.0,1.1,1.7*32
$GPRMC,080248.000,A,4549.9297,N,00114.0175,E,18.97,118.30,050112,,*30
$GPGGA,080249.000,4549.9273,N,00114.0241,E,1,09,1.1,297.7,M,48.8,M,,0000*5D
$GPGSA,A,3,21,03,19,30,06,16,22,18,07,,,,2.0,1.1,1.7*32
$GPRMC,080249.000,A,4549.9273,N,00114.0241,E,18.52,116.88,050112,,*3B
$GPGGA,080250.000,4549.9250,N,00114.0306,E,1,09,1.1,297.8,M,48.8,M,,0000*59
$GPGSA,A,3,21,03,19,30,06,16,22,18,07,,,,2.0,1.1,1.7*32
$GPGSV,3,1,12,06,80,344,44,03,69,306,45,16,68,203,44,18,42,084,47*75
$GPGSV,3,2,12,30,40,175,31,22,38,144,45,21,37,057,43,19,35,288,44*78
$GPGSV,3,3,12,07,16,310,40,08,03,339,,15,02,052,22,11,00,248,*71
$GPRMC,080250.000,A,4549.9250,N,00114.0306,E,18.34,116.26,050112,,*34
$GPGGA,080251.000,4549.9227,N,00114.0371,E,1,09,1.1,297.6,M,48.8,M,,0000*56
$GPGSA,A,3,21,03,19,30,06,16,22,18,07,,,,2.0,1.1,1.7*32
$GPRMC,080251.000,A,4549.9227,N,00114.0371,E,18.51,117.25,050112,,*34
$GPGGA,080252.000,4549.9204,N,00114.0437,E,1,09,1.1,297.7,M,48.8,M,,0000*50
$GPGSA,A,3,21,03,19,30,06,16,22,18,07,,,,2.0,1.1,1.7*32
$GPRMC,080252.000,A,4549.9204,N,00114.0437,E,18.63,114.82,050112,,*3C
$GPGGA,080253.000,4549.9183,N,00114.0505,E,1,09,1.1,297.7,M,48.8,M,,0000*5D
$GPGSA,A,3,21,03,19,30,06,16,22,18,07,,,,2.0,1.1,1.7*32
$GPRMC,080253.000,A,4549.9183,N,00114.0505,E,19.34,113.91,050112,,*37
$GPGGA,080254.000,4549.9161,N,00114.0577,E,1,09,1.1,297.8,M,48.8,M,,0000*5C
$GPGSA,A,3,21,03,19,30,06,16,22,18,07,,,,2.0,1.1,1.7*32
$GPRMC,080254.000,A,4549.9161,N,00114.0577,E,20.14,112.38,050112,,*33
$GPGGA,080255.000,4549.9141,N,00114.0652,E,1,09,1.1,297.9,M,48.8,M,,0000*5A
$GPGSA,A,3,21,03,19,30,06,16,22,18,07,,,,2.0,1.1,1.7*32
$GPGSV,3,1,12,06,80,344,43,03,69,306,45,16,68,203,44,18,42,084,47*72
$GPGSV,3,2,12,30,40,175,33,22,38,144,39,21,37,057,43,19,35,288,44*71
$GPGSV,3,3,12,07,16,310,41,08,03,339,,15,02,052,20,11,00,248,*72
$GPRMC,080255.000,A,4549.9141,N,00114.0652,E,20.10,110.88,050112,,*39
$GPGGA,080256.000,4549.9122,N,00114.0725,E,1,09,1.1,297.9,M,48.8,M,,0000*5D
$GPGSA,A,3,21,03,19,30,06,16,22,18,07,,,,2.0,1.1,1.7*32
$GPRMC,080256.000,A,4549.9122,N,00114.0725,E,19.62,110.49,050112,,*3C
$GPGGA,080257.000,4549.9103,N,00114.0797,E,1,09,1.1,298.0,M,48.8,M,,0000*50
$GPGSA,A,3,21,03,19,30,06,16,22,18,07,,,,2.0,1.1,1.7*32
$GPRMC,080257.000,A,4549.9103,N,00114.0797,E,19.13,110.63,050112,,*39
$GPGGA,080258.000,4549.9085,N,00114.0867,E,1,09,1.1,298.1,M,48.8,M,,0000*51
$GPGSA,A,3,21,03,19,30,06,16,22,18,07,,,,2.0,1.1,1.7*32
$GPRMC,080258.000,A,4549.9085,N,00114.0867,E,18.72,109.82,050112,,*38
$GPGGA,080259.000,4549.9068,N,00114.0937,E,1,09,1.1,298.2,M,48.8,M,,0000*54
$GPGSA,A,3,21,03,19,30,06,16,22,18,07,,,,2.0,1.1,1.7*32
$GPRMC,080259.000,A,4549.9068,N,00114.0937,E,18.52,109.00,050112,,*36
$GPGGA,080300.000,4549.9051,N,00114.1006,E,1,09,1.1,298.3,M,48.8,M,,0000*58
$GPGSA,A,3,21,03,19,30,06,16,22,18,07,,,,2.0,1.1,1.7*32
$GPGSV,3,1,12,06,80,344,43,03,69,306,45,16,68,203,44,18,42,084,47*72
$GPGSV,3,2,12,30,40,175,27,22,38,144,35,21,37,057,40,19,35,288,44*7B
$GPGSV,3,3,12,07,16,310,33,08,03,339,,15,02,052,23,11,00,248,*74
$GPRMC,080300.000,A,4549.9051,N,00114.1006,E,18.27,109.32,050112,,*38
$GPGGA,080301.000,4549.9034,N,00114.1073,E,1,09,1.1,298.3,M,48.8,M,,0000*58
$GPGSA,A,3,21,03,19,30,06,16,22,18,07,,,,2.0,1.1,1.7*32
$GPRMC,080301.000,A,4549.9034,N,00114.1073,E,17.82,109.22,050112,,*39
$GPGGA,080302.000,4549.9018,N,00114.1138,E,1,09,1.1,298.3,M,48.8,M,,0000*5B
$GPGSA,A,3,21,03,19,30,06,16,22,18,07,,,,2.0,1.1,1.7*32
$GPRMC,080302.000,A,4549.9018,N,00114.1138,E,17.25,107.51,050112,,*3D
$GPGGA,080303.000,4549.9005,N,00114.1203,E,1,09,1.1,298.4,M,48.8,M,,0000*5A
$GPGSA,A,3,21,03,19,30,06,16,22,18,07,,,,2.0,1.1,1.7*32
$GPRMC,080303.000,A,4549.9005,N,00114.1203,E,16.70,105.45,050112,,*3D
$GPGGA,080304.000,4549.8993,N,00114.1265,E,1,09,1.1,298.4,M,48.8,M,,0000*5A
$GPGSA,A,3,21,03,19,30,06,16,22,18,07,,,,2.0,1.1,1.7*32
$GPRMC,080304.000,A,4549.8993,N,00114.1265,E,16.23,105.02,050112,,*38
$GPGGA,080305.000,4549.8982,N,00114.1326,E,1,09,1.1,298.4,M,48.8,M,,0000*5D
$GPGSA,A,3,21,03,19,30,06,16,22,18,07,,,,2.0,1.1,1.7*32
$GPGSV,3,1,12,06,80,344,43,03,69,306,45,16,68,203,44,18,42,084,47*72
$GPGSV,3,2,12,30,40,175,45,22,38,144,46,21,37,057,42,19,35,288,44*79
$GPGSV,3,3,12,07,16,310,43,08,03,339,24,15,02,052,19,11,00,248,*7C
$GPRMC,080305.000,A,4549.8982,N,00114.1326,E,15.75,104.51,050112,,*38
$GPGGA,080306.000,4549.8971,N,00114.1385,E,1,09,1.1,298.4,M,48.8,M,,0000*5B
$GPGSA,A,3,21,03,19,30,06,16,22,18,07,,,,2.0,1.1,1.7*32
$GPRMC,080306.000,A,4549.8971,N,00114.1385,E,15.15,104.52,050112,,*3B
$GPGGA,080307.000,4549.8962,N,00114.1441,E,1,09,1.1,298.5,M,48.8,M,,0000*56
$GPGSA,A,3,21,03,19,30,06,16,22,18,07,,,,2.0,1.1,1.7*32
$GPRMC,080307.000,A,4549.8962,N,00114.1441,E,14.34,104.08,050112,,*3A
$GPGGA,080308.000,4549.8953,N,00114.1493,E,1,08,1.3,298.5,M,48.8,M,,0000*57
$GPGSA,A,3,21,03,19,06,16,22,18,07,,,,,2.2,1.3,1.7*31
$GPRMC,080308.000,A,4549.8953,N,00114.1493,E,12.79,103.97,050112,,*36
$GPGGA,080309.000,4549.8946,N,00114.1538,E,1,09,1.1,298.6,M,48.8,M,,0000*52
$GPGSA,A,3,21,03,19,30,06,16,22,18,07,,,,2.0,1.1,1.7*32
$GPRMC,080309.000,A,4549.8946,N,00114.1538,E,10.88,100.97,050112,,*3C
$GPGGA,080310.000,4549.8941,N,00114.1577,E,1,09,1.1,298.6,M,48.8,M,,0000*56
$GPGSA,A,3,21,03,19,30,06,16,22,18,07,,,,2.0,1.1,1.7*32
$GPGSV,3,1,12,06,80,344,44,03,69,306,45,16,68,203,44,18,42,084,47*75
$GPGSV,3,2,12,30,40,175,38,22,38,144,42,21,37,057,41,19,35,288,44*74
$GPGSV,3,3,12,07,16,310,40,08,03,339,,15,02,052,18,11,00,248,*78
$GPRMC,080310.000,A,4549.8941,N,00114.1577,E,9.23,99.43,050112,,*39
$GPGGA,080311.000,4549.8937,N,00114.1610,E,1,09,1.1,298.8,M,48.8,M,,0000*5A
$GPGSA,A,3,21,03,19,30,06,16,22,18,07,,,,2.0,1.1,1.7*32
$GPRMC,080311.000,A,4549.8937,N,00114.1610,E,7.95,98.82,050112,,*34
$GPGGA,080312.000,4549.8934,N,00114.1639,E,1,09,1.1,298.9,M,48.8,M,,0000*50
$GPGSA,A,3,21,03,19,30,06,16,22,18,07,,,,2.0,1.1,1.7*32
$GPRMC,080312.000,A,4549.8934,N,00114.1639,E,6.87,98.85,050112,,*3A
$GPGGA,080313.000,4549.8931,N,00114.1661,E,1,09,1.1,299.0,M,48.8,M,,0000*51
$GPGSA,A,3,21,03,19,30,06,16,22,18,07,,,,2.0,1.1,1.7*32
$GPRMC,080313.000,A,4549.8931,N,00114.1661,E,5.17,98.14,050112,,*31
$GPGGA,080314.000,4549.8930,N,00114.1678,E,1,09,1.1,299.1,M,48.8,M,,0000*5E
$GPGSA,A,3,21,03,19,30,06,16,22,18,07,,,,2.0,1.1,1.7*32
$GPRMC,080314.000,A,4549.8930,N,00114.1678,E,3.54,97.63,050112,,*31
$GPGGA,080315.000,4549.8929,N,00114.1688,E,1,09,1.1,299.2,M,48.8,M,,0000*5B
$GPGSA,A,3,21,03,19,30,06,16,22,18,07,,,,2.0,1.1,1.7*32
$GPGSV,3,1,12,06,80,344,44,03,69,306,45,16,68,203,44,18,42,084,47*75
$GPGSV,3,2,12,30,40,175,43,22,38,144,44,21,37,057,42,19,35,288,44*7D
$GPGSV,3,3,12,07,16,310,30,08,03,339,26,15,02,052,20,11,00,248,*70
$GPRMC,080315.000,A,4549.8929,N,00114.1688,E,2.26,98.74,050112,,*3A
$GPGGA,080316.000,4549.8928,N,00114.1694,E,1,09,1.1,299.2,M,48.8,M,,0000*54
$GPGSA,A,3,21,03,19,30,06,16,22,18,07,,,,2.0,1.1,1.7*32
$GPRMC,080316.000,A,4549.8928,N,00114.1694,E,1.40,98.82,050112,,*3F
$GPGGA,080317.000,4549.8928,N,00114.1698,E,1,09,1.1,299.3,M,48.8,M,,0000*58
$GPGSA,A,3,21,03,19,30,06,16,22,18,07,,,,2.0,1.1,1.7*32
$GPRMC,080317.000,A,4549.8928,N,00114.1698,E,0.72,100.30,050112,,*0B
$GPGGA,080318.000,4549.8928,N,00114.1699,E,1,09,1.1,299.3,M,48.8,M,,0000*56
$GPGSA,A,3,21,03,19,30,06,16,22,18,07,,,,2.0,1.1,1.7*32
$GPRMC,080318.000,A,4549.8928,N,00114.1699,E,0.28,105.51,050112,,*08
$GPGGA,080319.000,4549.8928,N,00114.1699,E,1,09,1.1,299.3,M,48.8,M,,0000*57
$GPGSA,A,3,21,03,19,30,06,16,22,18,07,,,,2.0,1.1,1.7*32
$GPRMC,080319.000,A,4549.8928,N,00114.1699,E,0.12,125.88,050112,,*06
$GPGGA,080320.000,4549.8928,N,00114.1698,E,1,09,1.1,299.4,M,48.8,M,,0000*5B
$GPGSA,A,3,21,03,19,30,06,16,22,18,07,,,,2.0,1.1,1.7*32
$GPGSV,3,1,12,06,80,344,44,03,69,306,45,16,68,203,44,18,42,084,47*75
$GPGSV,3,2,12,30,40,175,46,22,38,144,40,21,37,057,42,19,35,288,45*7D
$GPGSV,3,3,12,07,16,310,23,08,03,339,26,15,02,052,21,11,00,248,*73
$GPRMC,080320.000,A,4549.8928,N,00114.1698,E,0.09,137.82,050112,,*0E
$GPGGA,080321.000,4549.8928,N,00114.1697,E,1,09,1.1,299.4,M,48.8,M,,0000*55
$GPGSA,A,3,21,03,19,30,06,16,22,18,07,,,,2.0,1.1,1.7*32
$GPRMC,080321.000,A,4549.8928,N,00114.1697,E,0.05,124.29,050112,,*0F
$GPGGA,080322.000,4549.8928,N,00114.1697,E,1,09,1.1,299.4,M,48.8,M,,0000*56
$GPGSA,A,3,21,03,19,30,06,16,22,18,07,,,,2.0,1.1,1.7*32
$GPRMC,080322.000,A,4549.8928,N,00114.1697,E,0.12,108.31,050112,,*0D
$GPGGA,080323.000,4549.8927,N,00114.1699,E,1,09,1.1,299.4,M,48.8,M,,0000*56
$GPGSA,A,3,21,03,19,30,06,16,22,18,07,,,,2.0,1.1,1.7*32
$GPRMC,080323.000,A,4549.8927,N,00114.1699,E,1.64,96.89,050112,,*38
$GPGGA,080324.000,4549.8926,N,00114.1712,E,1,09,1.1,299.4,M,48.8,M,,0000*52
$GPGSA,A,3,21,03,19,30,06,16,22,18,07,,,,2.0,1.1,1.7*32
$GPRMC,080324.000,A,4549.8926,N,00114.1712,E,5.09,97.12,050112,,*30
$GPGGA,080325.000,4549.8924,N,00114.1737,E,1,09,1.1,299.3,M,48.8,M,,0000*51
$GPGSA,A,3,21,03,19,30,06,16,22,18,07,,,,2.0,1.1,1.7*32
$GPGSV,3,1,12,06,80,344,44,03,69,306,45,16,68,203,44,18,42,084,46*74
$GPGSV,3,2,12,30,40,175,45,22,38,144,37,21,37,057,41,19,35,288,45*7D
$GPGSV,3,3,12,07,16,310,35,08,03,339,,15,02,052,21,11,00,248,*70
$GPRMC,080325.000,A,4549.8924,N,00114.1737,E,7.67,96.51,050112,,*38
$GPGGA,080326.000,4549.8922,N,00114.1771,E,1,09,1.1,299.4,M,48.8,M,,0000*51
$GPGSA,A,3,21,03,19,30,06,16,22,18,07,,,,2.0,1.1,1.7*32
$GPRMC,080326.000,A,4549.8922,N,00114.1771,E,9.88,96.09,050112,,*3D
$GPGGA,080327.000,4549.8919,N,00114.1814,E,1,09,1.1,299.4,M,48.8,M,,0000*54
$GPGSA,A,3,21,03,19,30,06,16,22,18,07,,,,2.0,1.1,1.7*32
$GPRMC,080327.000,A,4549.8919,N,00114.1814,E,11.71,95.50,050112,,*08
$GPGGA,080328.000,4549.8916,N,00114.1860,E,1,09,1.1,299.5,M,48.8,M,,0000*56
$GPGSA,A,3,21,03,19,30,06,16,22,18,07,,,,2.0,1.1,1.7*32
$GPRMC,080328.000,A,4549.8916,N,00114.1860,E,11.64,96.10,050112,,*08
$GPGGA,080329.000,4549.8913,N,00114.1904,E,1,09,1.1,299.5,M,48.8,M,,0000*51
$GPGSA,A,3,21,03,19,30,06,16,22,18,07,,,,2.0,1.1,1.7*32
$GPRMC,080329.000,A,4549.8913,N,00114.1904,E,11.20,96.21,050112,,*0D
$GPGGA,080330.000,4549.8909,N,00114.1950,E,1,09,1.1,299.7,M,48.8,M,,0000*51
$GPGSA,A,3,21,03,19,30,06,16,22,18,07,,,,2.0,1.1,1.7*32
$GPGSV,3,1,12,06,80,344,44,03,69,306,45,16,68,203,44,18,42,084,46*74
$GPGSV,3,2,12,30,40,175,28,22,38,144,37,21,37,057,41,19,35,288,44*77
$GPGSV,3,3,12,07,16,310,35,08,03,339,,15,02,052,20,11,00,248,*71
$GPRMC,080330.000,A,4549.8909,N,00114.1950,E,11.94,96.58,050112,,*0E
$GPGGA,080331.000,4549.8906,N,00114.1999,E,1,09,1.1,299.7,M,48.8,M,,0000*5A
$GPGSA,A,3,21,03,19,30,06,16,22,18,07,,,,2.0,1.1,1.7*32
$GPRMC,080331.000,A,4549.8906,N,00114.1999,E,13.10,96.63,050112,,*03
$GPGGA,080332.000,4549.8901,N,00114.2053,E,1,09,1.1,299.8,M,48.8,M,,0000*5D
$GPGSA,A,3,21,03,19,30,06,16,22,18,07,,,,2.0,1.1,1.7*32
$GPRMC,080332.000,A,4549.8901,N,00114.2053,E,14.28,96.84,050112,,*0E
$GPGGA,080333.000,4549.8896,N,00114.2111,E,1,09,1.1,299.9,M,48.8,M,,0000*55
$GPGSA,A,3,21,03,19,30,06,16,22,18,07,,,,2.0,1.1,1.7*32
$GPRMC,080333.000,A,4549.8896,N,00114.2111,E,15.28,97.52,050112,,*0C
$GPGGA,080334.000,4549.8891,N,00114.2172,E,1,09,1.1,300.2,M,48.8,M,,0000*5A
$GPGSA,A,3,21,03,19,30,06,16,22,18,07,,,,2.0,1.1,1.7*32
$GPRMC,080334.000,A,4549.8891,N,00114.2172,E,15.57,98.41,050112,,*0C
$GPGGA,080335.000,4549.8884,N,00114.2233,E,1,09,1.1,300.5,M,48.8,M,,0000*5E
$GPGSA,A,3,21,03,19,30,06,16,22,18,07,,,,2.0,1.1,1.7*32
$GPGSV,3,1,12,06,80,344,44,03,69,306,45,16,68,203,44,18,42,084,45*77
$GPGSV,3,2,12,30,40,175,27,22,38,144,28,21,37,057,32,19,35,288,44*72
$GPGSV,3,3,12,07,16,310,33,08,03,339,25,15,02,052,12,11,00,248,*71
$GPRMC,080335.000,A,4549.8884,N,00114.2233,E,15.81,98.31,050112,,*03
$GPGGA,080336.000,4549.8879,N,00114.2297,E,1,09,1.1,300.6,M,48.8,M,,0000*52
$GPGSA,A,3,21,03,19,30,06,16,22,18,07,,,,2.0,1.1,1.7*32
$GPRMC,080336.000,A,4549.8879,N,00114.2297,E,16.32,96.73,050112,,*0F
$GPGGA,080337.000,4549.8874,N,00114.2362,E,1,09,1.1,300.8,M,48.8,M,,0000*5B
$GPGSA,A,3,21,03,19,30,06,16,22,18,07,,,,2.0,1.1,1.7*32
$GPRMC,080337.000,A,4549.8874,N,00114.2362,E,16.69,95.82,050112,,*0B
$GPGGA,080338.000,4549.8869,N,00114.2428,E,1,09,1.1,300.8,M,48.8,M,,0000*51
$GPGSA,A,3,21,03,19,30,06,16,22,18,07,,,,2.0,1.1,1.7*32
$GPRMC,080338.000,A,4549.8869,N,00114.2428,E,16.67,96.91,050112,,*0E
$GPGGA,080339.000,4549.8866,N,00114.2492,E,1,09,1.1,301.2,M,48.8,M,,0000*55
$GPGSA,A,3,21,03,19,30,06,16,22,18,07,,,,2.0,1.1,1.7*32
$GPRMC,080339.000,A,4549.8866,N,00114.2492,E,15.60,94.60,050112,,*09
$GPGGA,080340.000,4549.8863,N,00114.2550,E,1,09,1.1,301.4,M,48.8,M,,0000*57
$GPGSA,A,3,21,03,19,30,06,16,22,18,07,,,,2.0,1.1,1.7*32
$GPGSV,3,1,12,06,80,344,44,03,69,306,45,16,68,203,33,18,42,084,45*77
$GPGSV,3,2,12,30,40,175,33,22,38,144,36,21,37,057,43,19,35,288,43*79
$GPGSV,3,3,12,07,16,310,29,08,03,339,,15,02,052,13,11,00,248,*7C
$GPRMC,080340.000,A,4549.8863,N,00114.2550,E,13.74,95.82,050112,,*03
$GPGGA,080341.000,4549.8859,N,00114.2600,E,1,09,1.1,301.6,M,48.8,M,,0000*5B
$GPGSA,A,3,21,03,19,30,06,16,22,18,07,,,,2.0,1.1,1.7*32
$GPRMC,080341.000,A,4549.8859,N,00114.2600,E,11.80,95.42,050112,,*08
$GPGGA,080342.000,4549.8857,N,00114.2644,E,1,09,1.1,301.8,M,48.8,M,,0000*58
$GPGSA,A,3,21,03,19,30,06,16,22,18,07,,,,2.0,1.1,1.7*32
$GPRMC,080342.000,A,4549.8857,N,00114.2644,E,10.46,94.67,050112,,*08
$GPGGA,080343.000,4549.8851,N,00114.2683,E,1,09,1.1,301.8,M,48.8,M,,0000*54
$GPGSA,A,3,21,03,19,30,06,16,22,18,07,,,,2.0,1.1,1.7*32
$GPRMC,080343.000,A,4549.8851,N,00114.2683,E,9.99,106.37,050112,,*01
$GPGGA,080344.000,4549.8846,N,00114.2720,E,1,09,1.1,301.9,M,48.8,M,,0000*5C
$GPGSA,A,3,21,03,19,30,06,16,22,18,07,,,,2.0,1.1,1.7*32
$GPRMC,080344.000,A,4549.8846,N,00114.2720,E,9.42,98.72,050112,,*39
$GPGGA,080345.000,4549.8842,N,00114.2758,E,1,09,1.1,302.0,M,48.8,M,,0000*5C
$GPGSA,A,3,21,03,19,30,06,16,22,18,07,,,,2.0,1.1,1.7*32
$GPGSV,3,1,12,06,80,344,44,03,69,306,45,16,68,203,44,18,42,084,45*77
$GPGSV,3,2,12,30,40,175,32,22,38,144,27,21,37,057,43,19,35,288,43*78
$GPGSV,3,3,12,07,16,310,33,08,03,339,,15,02,052,,11,00,248,*75
$GPRMC,080345.000,A,4549.8842,N,00114.2758,E,9.87,96.37,050112,,*35
$GPGGA,080346.000,4549.8839,N,00114.2799,E,1,09,1.1,302.1,M,48.8,M,,0000*5F
$GPGSA,A,3,21,03,19,30,06,16,22,18,07,,,,2.0,1.1,1.7*32
$GPRMC,080346.000,A,4549.8839,N,00114.2799,E,11.10,95.87,050112,,*08
$GPGGA,080347.000,4549.8836,N,00114.2845,E,1,08,1.2,302.3,M,48.8,M,,0000*5F
$GPGSA,A,3,21,03,19,30,06,16,18,07,,,,,2.1,1.2,1.8*3F
$GPRMC,080347.000,A,4549.8836,N,00114.2845,E,12.33,94.55,050112,,*04
$GPGGA,080348.000,4549.8835,N,00114.2896,E,1,08,1.2,302.4,M,48.8,M,,0000*5A
$GPGSA,A,3,21,03,19,30,06,16,18,07,,,,,2.1,1.2,1.8*3F
$GPRMC,080348.000,A,4549.8835,N,00114.2896,E,13.52,91.91,050112,,*0D
$GPGGA,080349.000,4549.8833,N,00114.2953,E,1,09,1.1,302.6,M,48.8,M,,0000*55
$GPGSA,A,3,21,03,19,30,06,16,22,18,07,,,,2.0,1.1,1.7*32
$GPRMC,080349.000,A,4549.8833,N,00114.2953,E,14.81,93.05,050112,,*04
$GPGGA,080350.000,4549.8830,N,00114.3014,E,1,09,1.1,302.7,M,48.8,M,,0000*54
$GPGSA,A,3,21,03,19,30,06,16,22,18,07,,,,2.0,1.1,1.7*32
$GPGSV,3,1,12,06,80,346,44,03,69,306,45,16,68,202,44,18,42,084,45*74
$GPGSV,3,2,12,30,40,175,28,22,39,144,28,21,36,057,42,19,35,288,43*7D
$GPGSV,3,3,12,07,16,310,34,08,03,339,,15,02,051,,11,01,248,*70
$GPRMC,080350.000,A,4549.8830,N,00114.3014,E,16.11,94.77,050112,,*0D
$GPGGA,080351.000,4549.8826,N,00114.3080,E,1,09,1.1,303.0,M,48.8,M,,0000*59
$GPGSA,A,3,21,03,19,30,06,16,22,18,07,,,,2.0,1.1,1.7*32
$GPRMC,080351.000,A,4549.8826,N,00114.3080,E,17.33,95.95,050112,,*0A
$GPGGA,080352.000,4549.8821,N,00114.3150,E,1,09,1.1,303.2,M,48.8,M,,0000*53
$GPGSA,A,3,21,03,19,30,06,16,22,18,07,,,,2.0,1.1,1.7*32
$GPRMC,080352.000,A,4549.8821,N,00114.3150,E,18.02,96.76,050112,,*01
$GPGGA,080353.000,4549.8814,N,00114.3221,E,1,09,1.1,303.2,M,48.8,M,,0000*51
$GPGSA,A,3,21,03,19,30,06,16,22,18,07,,,,2.0,1.1,1.7*32
$GPRMC,080353.000,A,4549.8814,N,00114.3221,E,18.08,99.34,050112,,*00
$GPGGA,080354.000,4549.8809,N,00114.3292,E,1,09,1.1,303.8,M,48.8,M,,0000*58
$GPGSA,A,3,21,03,19,30,06,16,22,18,07,,,,2.0,1.1,1.7*32
$GPRMC,080354.000,A,4549.8809,N,00114.3292,E,18.10,99.55,050112,,*0D
$GPGGA,080355.000,4549.8800,N,00114.3364,E,1,09,1.1,304.0,M,48.8,M,,0000*57
$GPGSA,A,3,21,03,19,30,06,16,22,18,07,,,,2.0,1.1,1.7*32
$GPGSV,3,1,12,06,80,346,44,03,69,306,45,16,68,202,44,18,42,084,45*74
$GPGSV,3,2,12,30,40,175,24,22,39,144,28,21,36,057,42,19,35,288,43*71
$GPGSV,3,3,12,07,16,310,33,08,03,339,24,15,02,051,19,11,01,248,*79
$GPRMC,080355.000,A,4549.8800,N,00114.3364,E,18.66,100.01,050112,,*3C
$GPGGA,080356.000,4549.8792,N,00114.3438,E,1,09,1.1,304.1,M,48.8,M,,0000*5F
$GPGSA,A,3,21,03,19,30,06,16,22,18,07,,,,2.0,1.1,1.7*32
$GPRMC,080356.000,A,4549.8792,N,00114.3438,E,18.96,99.40,050112,,*0E
$GPGGA,080357.000,4549.8784,N,00114.3510,E,1,08,1.3,304.2,M,48.8,M,,0000*52
$GPGSA,A,3,21,03,19,06,16,22,18,07,,,,,2.2,1.3,1.7*31
$GPRMC,080357.000,A,4549.8784,N,00114.3510,E,18.18,98.85,050112,,*0D
$GPGGA,080358.000,4549.8777,N,00114.3580,E,1,08,1.3,304.5,M,48.8,M,,0000*5F
$GPGSA,A,3,21,03,19,06,16,22,18,07,,,,,2.2,1.3,1.7*31
$GPRMC,080358.000,A,4549.8777,N,00114.3580,E,17.20,96.65,050112,,*03
$GPGGA,080359.000,4549.8772,N,00114.3647,E,1,09,1.1,304.8,M,48.8,M,,0000*5D
$GPGSA,A,3,21,03,19,30,06,16,22,18,07,,,,2.0,1.1,1.7*32
$GPRMC,080359.000,A,4549.8772,N,00114.3647,E,16.69,96.90,050112,,*09
$GPGGA,080400.000,4549.8767,N,00114.3713,E,1,09,1.1,305.1,M,48.8,M,,0000*5A
$GPGSA,A,3,21,03,19,30,06,16,22,18,07,,,,2.0,1.1,1.7*32
$GPGSV,3,1,12,06,80,346,44,03,69,306,45,16,68,202,42,18,42,084,46*71
$GPGSV,3,2,12,30,40,175,24,22,39,144,29,21,36,057,40,19,35,288,44*75
$GPGSV,3,3,12,07,16,310,29,08,03,339,,15,02,051,,11,01,248,*7C
$GPRMC,080400.000,A,4549.8767,N,00114.3713,E,16.99,97.54,050112,,*00
$GPGGA,080401.000,4549.8761,N,00114.3781,E,1,09,1.1,305.3,M,48.8,M,,0000*54
$GPGSA,A,3,21,03,19,30,06,16,22,18,07,,,,2.0,1.1,1.7*32
$GPRMC,080401.000,A,4549.8761,N,00114.3781,E,17.61,98.14,050112,,*01
$GPGGA,080402.000,4549.8754,N,00114.3852,E,1,08,1.3,305.5,M,48.8,M,,0000*55
$GPGSA,A,3,21,03,19,06,16,22,18,07,,,,,2.2,1.3,1.7*31
$GPRMC,080402.000,A,4549.8754,N,00114.3852,E,18.27,98.21,050112,,*0E
$GPGGA,080403.000,4549.8747,N,00114.3925,E,1,06,2.2,305.7,M,48.8,M,,0000*59
$GPGSA,A,3,21,03,19,06,16,18,,,,,,,3.6,2.2,2.9*3C
$GPRMC,080403.000,A,4549.8747,N,00114.3925,E,18.90,97.88,050112,,*0C
$GPGGA,080404.000,4549.8740,N,00114.4001,E,1,07,2.1,305.7,M,48.8,M,,0000*53
$GPGSA,A,3,21,03,19,06,16,18,07,,,,,,3.2,2.1,2.4*31
$GPRMC,080404.000,A,4549.8740,N,00114.4001,E,19.61,98.38,050112,,*0F
$GPGGA,080405.000,4549.8732,N,00114.4079,E,1,08,1.2,305.8,M,48.8,M,,0000*58
$GPGSA,A,3,21,03,19,30,06,16,18,07,,,,,2.1,1.2,1.8*3F
$GPGSV,3,1,12,06,80,346,44,03,69,306,46,16,68,202,25,18,42,084,45*70
$GPGSV,3,2,12,30,40,175,18,22,39,144,,21,36,057,42,19,35,288,44*73
$GPGSV,3,3,12,07,16,310,34,08,03,339,,15,02,051,,11,01,248,*70
$GPRMC,080405.000,A,4549.8732,N,00114.4079,E,20.25,97.88,050112,,*0A
$GPGGA,080406.000,4549.8725,N,00114.4160,E,1,08,1.2,306.1,M,48.8,M,,0000*5E
$GPGSA,A,3,21,03,19,30,06,16,18,07,,,,,2.1,1.2,1.8*3F
$GPRMC,080406.000,A,4549.8725,N,00114.4160,E,20.99,98.08,050112,,*06
$GPGGA,080407.000,4549.8717,N,00114.4244,E,1,09,1.1,306.2,M,48.8,M,,0000*5A
$GPGSA,A,3,21,03,19,30,06,16,18,22,07,,,,2.0,1.1,1.7*32
$GPRMC,080407.000,A,4549.8717,N,00114.4244,E,21.67,97.07,050112,,*03
$GPGGA,080408.000,4549.8710,N,00114.4331,E,1,09,1.1,306.4,M,48.8,M,,0000*57
$GPGSA,A,3,21,03,19,30,06,16,18,22,07,,,,2.0,1.1,1.7*32
$GPRMC,080408.000,A,4549.8710,N,00114.4331,E,22.25,96.38,050112,,*00
$GPGGA,080409.000,4549.8704,N,00114.4418,E,1,08,1.3,306.6,M,48.8,M,,0000*5E
$GPGSA,A,3,21,03,19,06,16,18,22,07,,,,,2.2,1.3,1.7*31
$GPRMC,080409.000,A,4549.8704,N,00114.4418,E,22.11,96.83,050112,,*0F
$GPGGA,080410.000,4549.8697,N,00114.4504,E,1,08,1.3,306.8,M,48.8,M,,0000*5F
$GPGSA,A,3,21,03,19,06,16,18,22,07,,,,,2.2,1.3,1.7*31
$GPGSV,3,1,12,06,80,346,44,03,69,306,46,16,68,202,43,18,42,084,46*73
$GPGSV,3,2,12,30,40,175,,22,39,144,42,21,36,057,42,19,35,288,44*7C
$GPGSV,3,3,12,07,16,310,34,08,03,339,,15,02,051,,11,01,248,*70
$GPRMC,080410.000,A,4549.8697,N,00114.4504,E,21.21,96.42,050112,,*0D
$GPGGA,080411.000,4549.8691,N,00114.4586,E,1,09,1.1,306.9,M,48.8,M,,0000*50
$GPGSA,A,3,21,03,19,30,06,16,18,22,07,,,,2.0,1.1,1.7*32
$GPRMC,080411.000,A,4549.8691,N,00114.4586,E,20.31,96.18,050112,,*0F
$GPGGA,080412.000,4549.8685,N,00114.4665,E,1,09,1.1,307.1,M,48.8,M,,0000*51
$GPGSA,A,3,21,03,19,30,06,16,18,22,07,,,,2.0,1.1,1.7*32
$GPRMC,080412.000,A,4549.8685,N,00114.4665,E,19.83,96.84,050112,,*01
$GPGGA,080413.000,4549.8678,N,00114.4743,E,1,09,1.1,307.3,M,48.8,M,,0000*55
$GPGSA,A,3,21,03,19,30,06,16,18,22,07,,,,2.0,1.1,1.7*32
$GPRMC,080413.000,A,4549.8678,N,00114.4743,E,19.94,97.17,050112,,*0A
$GPGGA,080414.000,4549.8671,N,00114.4822,E,1,09,1.1,307.6,M,48.8,M,,0000*56
$GPGSA,A,3,21,03,19,30,06,16,18,22,07,,,,2.0,1.1,1.7*32
$GPRMC,080414.000,A,4549.8671,N,00114.4822,E,20.46,97.48,050112,,*03
$GPGGA,080415.000,4549.8664,N,00114.4904,E,1,08,1.2,307.8,M,48.8,M,,0000*5A
$GPGSA,A,3,21,03,19,30,06,16,18,22,,,,,2.6,1.2,2.3*37
$GPGSV,3,1,12,06,80,346,44,03,69,306,46,16,68,202,44,18,42,084,46*74
$GPGSV,3,2,12,30,40,175,42,22,39,144,43,21,36,057,41,19,35,288,44*78
$GPGSV,3,3,12,07,16,310,,08,03,339,,15,02,051,,11,01,248,*77
$GPRMC,080415.000,A,4549.8664,N,00114.4904,E,21.09,97.43,050112,,*02
$GPGGA,080416.000,4549.8657,N,00114.4989,E,1,09,1.1,308.0,M,48.8,M,,0000*59
$GPGSA,A,3,21,03,19,30,06,16,18,22,07,,,,2.0,1.1,1.7*32
$GPRMC,080416.000,A,4549.8657,N,00114.4989,E,21.57,97.16,050112,,*0F
$GPGGA,080417.000,4549.8650,N,00114.5074,E,1,08,1.3,308.1,M,48.8,M,,0000*57
$GPGSA,A,3,21,03,19,06,16,18,22,07,,,,,2.2,1.3,1.7*31
$GPRMC,080417.000,A,4549.8650,N,00114.5074,E,21.74,97.45,050112,,*04
$GPGGA,080418.000,4549.8642,N,00114.5159,E,1,08,1.3,308.2,M,48.8,M,,0000*56
$GPGSA,A,3,21,03,19,06,16,18,22,07,,,,,2.2,1.3,1.7*31
$GPRMC,080418.000,A,4549.8642,N,00114.5159,E,21.54,97.78,050112,,*0A
$GPGGA,080419.000,4549.8634,N,00114.5243,E,1,07,2.1,308.3,M,48.8,M,,0000*51
$GPGSA,A,3,21,03,19,06,16,18,07,,,,,,3.2,2.1,2.4*31
$GPRMC,080419.000,A,4549.8634,N,00114.5243,E,21.29,98.41,050112,,*0D
$GPGGA,080420.000,4549.8625,N,00114.5326,E,1,09,1.1,308.4,M,48.8,M,,0000*53
$GPGSA,A,3,21,03,19,30,06,16,18,07,22,,,,2.0,1.1,1.7*32
$GPGSV,3,1,12,06,81,347,44,03,69,306,45,16,68,202,43,18,42,083,47*76
$GPGSV,3,2,12,30,40,175,36,22,39,143,43,21,36,057,42,19,35,288,44*7F
$GPGSV,3,3,12,07,16,310,30,08,03,339,,15,02,051,,11,01,248,*74
$GPRMC,080420.000,A,4549.8625,N,00114.5326,E,20.69,96.79,050112,,*05
$GPGGA,080421.000,4549.8616,N,00114.5407,E,1,09,1.1,308.3,M,48.8,M,,0000*51
$GPGSA,A,3,21,03,19,30,06,16,18,07,22,,,,2.0,1.1,1.7*32
$GPRMC,080421.000,A,4549.8616,N,00114.5407,E,20.11,98.11,050112,,*0F
$GPGGA,080422.000,4549.8609,N,00114.5484,E,1,08,1.2,308.5,M,48.8,M,,0000*53
$GPGSA,A,3,21,03,19,30,06,16,18,22,,,,,2.6,1.2,2.3*37
$GPRMC,080422.000,A,4549.8609,N,00114.5484,E,19.36,98.36,050112,,*03
$GPGGA,080423.000,4549.8601,N,00114.5559,E,1,08,1.2,308.7,M,48.8,M,,0000*59
$GPGSA,A,3,21,03,19,30,06,16,18,22,,,,,2.6,1.2,2.3*37
$GPRMC,080423.000,A,4549.8601,N,00114.5559,E,18.65,99.11,050112,,*08
$GPGGA,080424.000,4549.8593,N,00114.5631,E,1,09,1.1,308.8,M,48.8,M,,0000*56
$GPGSA,A,3,21,03,19,30,06,16,18,07,22,,,,2.0,1.1,1.7*32
$GPRMC,080424.000,A,4549.8593,N,00114.5631,E,18.02,99.92,050112,,*00
$GPGGA,080425.000,4549.8584,N,00114.5700,E,1,08,1.2,308.8,M,48.8,M,,0000*50
$GPGSA,A,3,21,03,19,30,06,16,18,22,,,,,2.6,1.2,2.3*37
$GPGSV,3,1,12,06,81,347,44,03,69,306,45,16,68,202,44,18,42,083,47*71
$GPGSV,3,2,12,30,40,175,45,22,39,143,45,21,36,057,39,19,35,288,45*70
$GPGSV,3,3,12,07,16,310,25,08,03,339,,15,02,051,,11,01,248,*70
$GPRMC,080425.000,A,4549.8584,N,00114.5700,E,17.60,100.32,050112,,*34
$GPGGA,080426.000,4549.8576,N,00114.5768,E,1,08,1.2,308.8,M,48.8,M,,0000*50
$GPGSA,A,3,21,03,19,30,06,16,18,22,,,,,2.6,1.2,2.3*37
$GPRMC,080426.000,A,4549.8576,N,00114.5768,E,17.41,99.80,050112,,*0F
$GPGGA,080427.000,4549.8570,N,00114.5837,E,1,08,1.2,308.9,M,48.8,M,,0000*53
$GPGSA,A,3,21,03,19,30,06,16,18,22,,,,,2.6,1.2,2.3*37
$GPRMC,080427.000,A,4549.8570,N,00114.5837,E,17.53,98.41,050112,,*02
$GPGGA,080428.000,4549.8563,N,00114.5906,E,1,08,1.2,308.7,M,48.8,M,,0000*53
$GPGSA,A,3,21,03,19,30,06,16,18,22,,,,,2.6,1.2,2.3*37
$GPRMC,080428.000,A,4549.8563,N,00114.5906,E,17.89,98.50,050112,,*0B
$GPGGA,080429.000,4549.8556,N,00114.5976,E,1,08,1.2,308.5,M,48.8,M,,0000*51
$GPGSA,A,3,21,03,19,30,06,16,18,22,,,,,2.6,1.2,2.3*37
$GPRMC,080429.000,A,4549.8556,N,00114.5976,E,17.94,97.38,050112,,*06
$GPGGA,080430.000,4549.8550,N,00114.6047,E,1,08,1.2,308.3,M,48.8,M,,0000*51
$GPGSA,A,3,21,03,19,30,06,16,18,07,,,,,2.1,1.2,1.7*30
$GPGSV,3,1,12,06,81,347,44,03,69,306,46,16,68,202,37,18,42,083,47*76
$GPGSV,3,2,12,30,40,175,26,22,39,143,,21,36,057,41,19,35,288,45*7B
$GPGSV,3,3,12,07,16,310,21,08,03,339,,15,02,051,,11,01,248,*74
$GPRMC,080430.000,A,4549.8550,N,00114.6047,E,17.73,96.97,050112,,*0D
$GPGGA,080431.000,4549.8546,N,00114.6115,E,1,08,1.2,308.2,M,48.8,M,,0000*50
$GPGSA,A,3,21,03,19,30,06,16,18,07,,,,,2.1,1.2,1.7*30
$GPRMC,080431.000,A,4549.8546,N,00114.6115,E,16.82,94.52,050112,,*09
$GPGGA,080432.000,4549.8541,N,00114.6179,E,1,09,1.1,307.9,M,48.8,M,,0000*58
$GPGSA,A,3,21,03,19,30,06,16,22,18,07,,,,2.0,1.1,1.7*32
$GPRMC,080432.000,A,4549.8541,N,00114.6179,E,15.76,96.04,050112,,*0E
$GPGGA,080433.000,4549.8536,N,00114.6239,E,1,09,1.1,307.6,M,48.8,M,,0000*51
$GPGSA,A,3,21,03,19,30,06,16,22,18,07,,,,2.0,1.1,1.7*32
$GPRMC,080433.000,A,4549.8536,N,00114.6239,E,14.70,96.66,050112,,*0B
$GPGGA,080434.000,4549.8533,N,00114.6294,E,1,09,1.1,307.5,M,48.8,M,,0000*57
$GPGSA,A,3,21,03,19,30,06,16,22,18,07,,,,2.0,1.1,1.7*32
$GPRMC,080434.000,A,4549.8533,N,00114.6294,E,13.46,94.45,050112,,*0F
$GPGGA,080435.000,4549.8530,N,00114.6344,E,1,09,1.1,307.4,M,48.8,M,,0000*58
$GPGSA,A,3,21,03,19,30,06,16,22,18,07,,,,2.0,1.1,1.7*32
$GPGSV,3,1,12,06,81,347,44,03,69,306,46,16,68,202,42,18,42,083,47*74
$GPGSV,3,2,12,30,40,175,44,22,39,143,43,21,36,057,42,19,35,288,44*7A
$GPGSV,3,3,12,07,16,310,28,08,03,339,,15,02,051,,11,01,248,*7D
$GPRMC,080435.000,A,4549.8530,N,00114.6344,E,12.02,96.61,050112,,*04
$GPGGA,080436.000,4549.8522,N,00114.6386,E,1,09,1.1,307.3,M,48.8,M,,0000*51
$GPGSA,A,3,21,03,19,30,06,16,22,18,07,,,,2.0,1.1,1.7*32
$GPRMC,080436.000,A,4549.8522,N,00114.6386,E,10.44,112.85,050112,,*3D
$GPGGA,080437.000,4549.8505,N,00114.6418,E,1,09,1.1,307.0,M,48.8,M,,0000*56
$GPGSA,A,3,21,03,19,30,06,16,22,18,07,,,,2.0,1.1,1.7*32
$GPRMC,080437.000,A,4549.8505,N,00114.6418,E,10.76,138.83,050112,,*36
$GPGGA,080438.000,4549.8475,N,00114.6440,E,1,09,1.1,306.7,M,48.8,M,,0000*54
$GPGSA,A,3,21,03,19,30,06,16,22,18,07,,,,2.0,1.1,1.7*32
$GPRMC,080438.000,A,4549.8475,N,00114.6440,E,13.50,162.77,050112,,*31
$GPGGA,080439.000,4549.8434,N,00114.6453,E,1,09,1.1,306.4,M,48.8,M,,0000*51
$GPGSA,A,3,21,03,19,30,06,16,22,18,07,,,,2.0,1.1,1.7*32
$GPRMC,080439.000,A,4549.8434,N,00114.6453,E,16.95,169.55,050112,,*30
$GPGGA,080440.000,4549.8383,N,00114.6463,E,1,08,1.2,305.9,M,48.8,M,,0000*5B
$GPGSA,A,3,21,03,19,30,06,16,22,18,,,,,2.6,1.2,2.3*37
$GPGSV,3,1,12,06,81,347,44,03,69,306,45,16,68,202,43,18,42,083,45*74
$GPGSV,3,2,12,30,40,175,44,22,39,143,45,21,36,057,42,19,35,288,40*78
$GPGSV,3,3,12,07,16,310,22,08,03,339,,15,02,051,,11,01,248,*77
$GPRMC,080440.000,A,4549.8383,N,00114.6463,E,19.67,172.15,050112,,*3A
$GPGGA,080441.000,4549.8327,N,00114.6473,E,1,08,1.2,305.5,M,48.8,M,,0000*59
$GPGSA,A,3,21,03,19,30,06,16,22,18,,,,,2.6,1.2,2.3*37
$GPRMC,080441.000,A,4549.8327,N,00114.6473,E,20.46,172.32,050112,,*38
$GPGGA,080442.000,4549.8272,N,00114.6485,E,1,09,1.1,305.2,M,48.8,M,,0000*57
$GPGSA,A,3,21,03,19,30,06,16,22,18,07,,,,2.0,1.1,1.7*32
$GPRMC,080442.000,A,4549.8272,N,00114.6485,E,19.47,171.37,050112,,*3E
$GPGGA,080443.000,4549.8221,N,00114.6493,E,1,09,1.1,304.9,M,48.8,M,,0000*5D
$GPGSA,A,3,21,03,19,30,06,16,22,18,07,,,,2.0,1.1,1.7*32
$GPRMC,080443.000,A,4549.8221,N,00114.6493,E,16.52,174.02,050112,,*36
$GPGGA,080444.000,4549.8180,N,00114.6497,E,1,09,1.1,304.7,M,48.8,M,,0000*58
$GPGSA,A,3,21,03,19,30,06,16,22,18,07,,,,2.0,1.1,1.7*32
$GPRMC,080444.000,A,4549.8180,N,00114.6497,E,13.33,174.90,050112,,*34
$GPGGA,080445.000,4549.8148,N,00114.6504,E,1,09,1.1,304.2,M,48.8,M,,0000*53
$GPGSA,A,3,21,03,19,30,06,16,22,18,07,,,,2.0,1.1,1.7*32
$GPGSV,3,1,12,06,81,347,44,03,69,306,45,16,68,202,43,18,42,083,45*74
$GPGSV,3,2,12,30,40,175,45,22,39,143,46,21,36,057,38,19,35,288,43*74
$GPGSV,3,3,12,07,16,310,31,08,03,339,,15,02,051,,11,01,248,*75
$GPRMC,080445.000,A,4549.8148,N,00114.6504,E,10.29,162.97,050112,,*32
$GPGGA,080446.000,4549.8124,N,00114.6522,E,1,09,1.1,303.6,M,48.8,M,,0000*5D
$GPGSA,A,3,21,03,19,30,06,16,22,18,07,,,,2.0,1.1,1.7*32
$GPRMC,080446.000,A,4549.8124,N,00114.6522,E,9.79,141.51,050112,,*09
$GPGGA,080447.000,4549.8107,N,00114.6554,E,1,08,1.3,303.1,M,48.8,M,,0000*58
$GPGSA,A,3,21,03,19,06,16,22,18,07,,,,,2.2,1.3,1.7*31
$GPRMC,080447.000,A,4549.8107,N,00114.6554,E,11.37,115.57,050112,,*3C
$GPGGA,080448.000,4549.8098,N,00114.6600,E,1,09,1.1,302.6,M,48.8,M,,0000*57
$GPGSA,A,3,21,03,19,30,06,16,22,18,07,,,,2.0,1.1,1.7*32
$GPRMC,080448.000,A,4549.8098,N,00114.6600,E,13.45,98.28,050112,,*0D
$GPGGA,080449.000,4549.8095,N,00114.6657,E,1,09,1.1,302.4,M,48.8,M,,0000*5B
$GPGSA,A,3,21,03,19,30,06,16,22,18,07,,,,2.0,1.1,1.7*32
$GPRMC,080449.000,A,4549.8095,N,00114.6657,E,15.35,90.91,050112,,*08
$GPGGA,080450.000,4549.8095,N,00114.6717,E,1,09,1.1,302.3,M,48.8,M,,0000*51
$GPGSA,A,3,21,03,19,30,06,16,22,18,07,,,,2.0,1.1,1.7*32
$GPGSV,3,1,12,06,81,349,44,03,70,306,45,16,68,201,44,18,42,083,46*75
$GPGSV,3,2,12,30,39,175,26,22,39,143,27,21,36,057,40,19,35,288,44*70
$GPGSV,3,3,12,07,16,310,40,08,03,339,,15,02,051,,11,01,249,*72
$GPRMC,080450.000,A,4549.8095,N,00114.6717,E,15.26,90.14,050112,,*0A
$GPGGA,080451.000,4549.8095,N,00114.6773,E,1,09,1.1,302.1,M,48.8,M,,0000*50
$GPGSA,A,3,21,03,19,30,06,16,22,18,07,,,,2.0,1.1,1.7*32
$GPRMC,080451.000,A,4549.8095,N,00114.6773,E,12.82,90.38,050112,,*0E
$GPGGA,080452.000,4549.8093,N,00114.6815,E,1,09,1.1,301.7,M,48.8,M,,0000*5F
$GPGSA,A,3,21,03,19,30,06,16,22,18,07,,,,2.0,1.1,1.7*32
$GPRMC,080452.000,A,4549.8093,N,00114.6815,E,9.14,100.76,050112,,*03
$GPGGA,080453.000,4549.8089,N,00114.6841,E,1,09,1.1,301.4,M,48.8,M,,0000*57
$GPGSA,A,3,21,03,19,30,06,16,22,18,07,,,,2.0,1.1,1.7*32
$GPRMC,080453.000,A,4549.8089,N,00114.6841,E,5.07,110.52,050112,,*01
$GPGGA,080454.000,4549.8083,N,00114.6857,E,1,09,1.1,301.1,M,48.8,M,,0000*58
$GPGSA,A,3,21,03,19,30,06,16,22,18,07,,,,2.0,1.1,1.7*32
$GPRMC,080454.000,A,4549.8083,N,00114.6857,E,4.48,129.54,050112,,*0D
$GPGGA,080455.000,4549.8071,N,00114.6870,E,1,09,1.1,300.8,M,48.8,M,,0000*59
$GPGSA,A,3,21,03,19,30,06,16,22,18,07,,,,2.0,1.1,1.7*32
$GPGSV,3,1,12,06,81,349,44,03,70,306,45,16,68,201,44,18,42,083,46*75
$GPGSV,3,2,12,30,39,175,45,22,39,143,45,21,36,057,41,19,35,288,44*70
$GPGSV,3,3,12,07,16,310,38,08,03,339,,15,02,051,,11,01,249,*7D
$GPRMC,080455.000,A,4549.8071,N,00114.6870,E,7.24,150.17,050112,,*04
$GPGGA,080456.000,4549.8048,N,00114.6880,E,1,09,1.1,300.5,M,48.8,M,,0000*52
$GPGSA,A,3,21,03,19,30,06,16,22,18,07,,,,2.0,1.1,1.7*32
$GPRMC,080456.000,A,4549.8048,N,00114.6880,E,10.36,169.19,050112,,*33
$GPGGA,080457.000,4549.8015,N,00114.6884,E,1,09,1.1,300.2,M,48.8,M,,0000*58
$GPGSA,A,3,21,03,19,30,06,16,22,18,07,,,,2.0,1.1,1.7*32
$GPRMC,080457.000,A,4549.8015,N,00114.6884,E,13.03,178.84,050112,,*3F
$GPGGA,080458.000,4549.7975,N,00114.6883,E,1,09,1.1,299.9,M,48.8,M,,0000*5A
$GPGSA,A,3,21,03,19,30,06,16,22,18,07,,,,2.0,1.1,1.7*32
$GPRMC,080458.000,A,4549.7975,N,00114.6883,E,15.04,181.37,050112,,*38
$GPGGA,080459.000,4549.7931,N,00114.6880,E,1,08,1.2,299.6,M,48.8,M,,0000*55
$GPGSA,A,3,21,03,19,30,06,16,22,18,,,,,2.6,1.2,2.3*37
$GPRMC,080459.000,A,4549.7931,N,00114.6880,E,16.21,182.41,050112,,*3C
$GPGGA,080500.000,4549.7886,N,00114.6876,E,1,07,2.5,299.3,M,48.8,M,,0000*52
$GPGSA,A,3,21,03,30,06,16,22,18,,,,,,6.0,2.5,5.4*39
$GPGSV,3,1,12,06,81,349,44,03,70,306,45,16,68,201,44,18,42,083,42*71
$GPGSV,3,2,12,30,39,175,46,22,39,143,46,21,36,057,41,19,35,288,18*79
$GPGSV,3,3,12,07,16,310,,08,03,339,,15,02,051,,11,01,249,*76
$GPRMC,080500.000,A,4549.7886,N,00114.6876,E,15.75,184.68,050112,,*3A
$GPGGA,080501.000,4549.7843,N,00114.6868,E,1,07,2.5,299.0,M,48.8,M,,0000*56
$GPGSA,A,3,21,03,30,06,16,22,18,,,,,,6.0,2.5,5.4*39
$GPRMC,080501.000,A,4549.7843,N,00114.6868,E,14.91,187.72,050112,,*3E
$GPGGA,080502.000,4549.7804,N,00114.6862,E,1,08,1.2,298.6,M,48.8,M,,0000*50
$GPGSA,A,3,21,03,30,06,16,22,18,19,,,,,2.6,1.2,2.3*37
$GPRMC,080502.000,A,4549.7804,N,00114.6862,E,13.41,184.19,050112,,*30
$GPGGA,080503.000,4549.7769,N,00114.6859,E,1,08,1.2,298.2,M,48.8,M,,0000*59
$GPGSA,A,3,21,03,30,06,16,22,18,19,,,,,2.6,1.2,2.3*37
$GPRMC,080503.000,A,4549.7769,N,00114.6859,E,11.45,181.37,050112,,*32
$GPGGA,080504.000,4549.7741,N,00114.6858,E,1,08,1.2,297.9,M,48.8,M,,0000*51
$GPGSA,A,3,21,03,30,06,16,22,18,19,,,,,2.6,1.2,2.3*37
$GPRMC,080504.000,A,4549.7741,N,00114.6858,E,9.17,180.57,050112,,*07
$GPGGA,080505.000,4549.7720,N,00114.6856,E,1,08,1.2,297.8,M,48.8,M,,0000*58
$GPGSA,A,3,21,03,30,06,16,22,18,19,,,,,2.6,1.2,2.3*37
$GPGSV,3,1,12,06,81,349,44,03,70,306,40,16,68,201,44,18,42,083,43*75
$GPGSV,3,2,12,30,39,175,47,22,39,143,47,21,36,057,41,19,35,288,23*71
$GPGSV,3,3,12,07,16,310,,08,03,339,,15,02,051,,11,01,249,*76
$GPRMC,080505.000,A,4549.7720,N,00114.6856,E,6.24,181.91,050112,,*0B
$GPGGA,080506.000,4549.7708,N,00114.6855,E,1,08,1.2,297.7,M,48.8,M,,0000*5D
$GPGSA,A,3,21,03,30,06,16,22,18,19,,,,,2.6,1.2,2.3*37
$GPRMC,080506.000,A,4549.7708,N,00114.6855,E,3.14,185.04,050112,,*0F
$GPGGA,080507.000,4549.7702,N,00114.6853,E,1,07,2.5,297.6,M,48.8,M,,0000*5A
$GPGSA,A,3,21,03,30,06,16,22,18,,,,,,5.9,2.5,5.4*33
$GPRMC,080507.000,A,4549.7702,N,00114.6853,E,1.35,189.76,050112,,*0A
$GPGGA,080508.000,4549.7700,N,00114.6853,E,1,07,2.5,297.6,M,48.8,M,,0000*57
$GPGSA,A,3,21,03,30,06,16,22,18,,,,,,5.9,2.5,5.4*33
$GPRMC,080508.000,A,4549.7700,N,00114.6853,E,0.27,260.13,050112,,*02
$GPGGA,080509.000,4549.7701,N,00114.6852,E,1,07,2.5,297.5,M,48.8,M,,0000*55
$GPGSA,A,3,21,03,30,06,16,22,18,,,,,,5.9,2.5,5.4*33
$GPRMC,080509.000,A,4549.7701,N,00114.6852,E,0.24,301.92,050112,,*0F
$GPGGA,080510.000,4549.7701,N,00114.6851,E,1,07,2.5,297.4,M,48.8,M,,0000*5F
$GPGSA,A,3,21,03,30,06,16,22,18,,,,,,5.9,2.5,5.4*33
$GPGSV,3,1,12,06,81,349,44,03,70,306,40,16,68,201,44,18,42,083,42*74
$GPGSV,3,2,12,30,39,175,48,22,39,143,47,21,36,057,36,19,35,288,*7F
$GPGSV,3,3,12,07,16,310,,08,03,339,,15,02,051,12,11,01,249,*75
$GPRMC,080510.000,A,4549.7701,N,00114.6851,E,0.22,300.22,050112,,*08
$GPGGA,080511.000,4549.7702,N,00114.6850,E,1,07,2.5,297.3,M,48.8,M,,0000*5B
$GPGSA,A,3,21,03,30,06,16,22,18,,,,,,5.9,2.5,5.4*33
$GPRMC,080511.000,A,4549.7702,N,00114.6850,E,0.21,298.87,050112,,*07
$GPGGA,080512.000,4549.7702,N,00114.6850,E,1,07,2.5,297.3,M,48.8,M,,0000*58
$GPGSA,A,3,21,03,30,06,16,22,18,,,,,,5.9,2.5,5.4*33
$GPRMC,080512.000,A,4549.7702,N,00114.6850,E,0.20,300.04,050112,,*0E
$GPGGA,080513.000,4549.7703,N,00114.6849,E,1,07,2.5,297.2,M,48.8,M,,0000*51
$GPGSA,A,3,21,03,30,06,16,22,18,,,,,,5.9,2.5,5.4*33
$GPRMC,080513.000,A,4549.7703,N,00114.6849,E,0.19,297.96,050112,,*08
$GPGGA,080514.000,4549.7703,N,00114.6848,E,1,07,2.5,297.1,M,48.8,M,,0000*54
$GPGSA,A,3,21,03,30,06,16,22,18,,,,,,5.9,2.5,5.4*33
$GPRMC,080514.000,A,4549.7703,N,00114.6848,E,0.18,295.44,050112,,*02
$GPGGA,080515.000,4549.7704,N,00114.6848,E,1,07,2.5,297.0,M,48.8,M,,0000*53
$GPGSA,A,3,21,03,30,06,16,22,18,,,,,,5.9,2.5,5.4*33
$GPGSV,3,1,12,06,81,349,44,03,70,306,39,16,68,201,44,18,42,083,42*7A
$GPGSV,3,2,12,30,39,175,49,22,39,143,46,21,36,057,36,19,35,288,*7F
$GPGSV,3,3,12,07,16,310,,08,03,339,,15,02,051,,11,01,249,*76
$GPRMC,080515.000,A,4549.7704,N,00114.6848,E,0.17,293.91,050112,,*05
$GPGGA,080516.000,4549.7704,N,00114.6847,E,1,07,2.5,297.0,M,48.8,M,,0000*5F
$GPGSA,A,3,21,03,30,06,16,22,18,,,,,,5.9,2.5,5.4*33
$GPRMC,080516.000,A,4549.7704,N,00114.6847,E,0.16,296.79,050112,,*0B
$GPGGA,080517.000,4549.7705,N,00114.6846,E,1,07,2.5,296.9,M,48.8,M,,0000*56
$GPGSA,A,3,21,03,30,06,16,22,18,,,,,,5.9,2.5,5.4*33
$GPRMC,080517.000,A,4549.7705,N,00114.6846,E,0.16,293.76,050112,,*00
$GPGGA,080518.000,4549.7705,N,00114.6846,E,1,07,2.5,296.9,M,48.8,M,,0000*59
$GPGSA,A,3,21,03,30,06,16,22,18,,,,,,5.9,2.5,5.4*33
$GPRMC,080518.000,A,4549.7705,N,00114.6846,E,0.15,293.46,050112,,*0F
$GPGGA,080519.000,4549.7705,N,00114.6845,E,1,07,2.5,296.8,M,48.8,M,,0000*5A
$GPGSA,A,3,21,03,30,06,16,22,18,,,,,,5.9,2.5,5.4*33
$GPRMC,080519.000,A,4549.7705,N,00114.6845,E,0.14,297.09,050112,,*03
$GPGGA,080520.000,4549.7706,N,00114.6844,E,1,07,2.5,296.8,M,48.8,M,,0000*52
$GPGSA,A,3,21,03,30,06,16,22,18,,,,,,5.9,2.5,5.4*33
$GPGSV,3,1,12,06,81,349,44,03,70,306,39,16,68,201,44,18,42,083,41*79
$GPGSV,3,2,12,30,39,175,49,22,39,143,46,21,36,057,36,19,35,288,*7F
$GPGSV,3,3,12,07,16,310,,08,03,339,,15,02,051,,11,01,249,*76
$GPRMC,080520.000,A,4549.7706,N,00114.6844,E,0.13,291.51,050112,,*07
$GPGGA,080521.000,4549.7706,N,00114.6844,E,1,07,2.5,296.7,M,48.8,M,,0000*5C
$GPGSA,A,3,21,03,30,06,16,22,18,,,,,,5.9,2.5,5.3*34
$GPRMC,080521.000,A,4549.7706,N,00114.6844,E,0.14,294.74,050112,,*03
$GPGGA,080522.000,4549.7706,N,00114.6843,E,1,07,2.5,296.6,M,48.8,M,,0000*59
$GPGSA,A,3,21,03,30,06,16,22,18,,,,,,5.9,2.5,5.3*34
$GPRMC,080522.000,A,4549.7706,N,00114.6843,E,0.42,193.87,050112,,*0C
$GPGGA,080523.000,4549.7701,N,00114.6842,E,1,07,2.5,296.4,M,48.8,M,,0000*5C
$GPGSA,A,3,21,03,30,06,16,22,18,,,,,,5.9,2.5,5.3*34
$GPRMC,080523.000,A,4549.7701,N,00114.6842,E,2.88,181.41,050112,,*06
$GPGGA,080524.000,4549.7688,N,00114.6842,E,1,07,2.5,296.3,M,48.8,M,,0000*5C
$GPGSA,A,3,21,03,30,06,16,22,18,,,,,,5.9,2.5,5.3*34
$GPRMC,080524.000,A,4549.7688,N,00114.6842,E,6.63,179.32,050112,,*03
$GPGGA,080525.000,4549.7665,N,00114.6847,E,1,07,2.5,296.7,M,48.8,M,,0000*5F
$GPGSA,A,3,21,03,30,06,16,22,18,,,,,,5.9,2.5,5.3*34
$GPGSV,3,1,12,06,81,349,44,03,70,306,41,16,68,201,44,18,42,083,42*75
$GPGSV,3,2,12,30,39,175,48,22,39,143,46,21,36,057,41,19,35,288,*7E
$GPGSV,3,3,12,07,16,310,,08,03,339,,15,02,051,,11,01,249,*76
$GPRMC,080525.000,A,4549.7665,N,00114.6847,E,9.00,170.22,050112,,*06
$GPGGA,080526.000,4549.7641,N,00114.6860,E,1,07,2.5,296.5,M,48.8,M,,0000*5D
$GPGSA,A,3,21,03,30,06,16,22,18,,,,,,5.9,2.5,5.3*34
$GPRMC,080526.000,A,4549.7641,N,00114.6860,E,10.17,148.00,050112,,*33
$GPGGA,080527.000,4549.7621,N,00114.6887,E,1,08,1.2,295.6,M,48.8,M,,0000*58
$GPGSA,A,3,21,03,30,06,16,22,18,19,,,,,2.6,1.2,2.3*37
$GPRMC,080527.000,A,4549.7621,N,00114.6887,E,11.37,123.71,050112,,*35
$GPGGA,080528.000,4549.7605,N,00114.6940,E,1,09,1.1,296.8,M,48.8,M,,0000*54
$GPGSA,A,3,21,03,30,06,16,22,18,19,07,,,,2.0,1.1,1.7*32
$GPRMC,080528.000,A,4549.7605,N,00114.6940,E,14.14,107.19,050112,,*3A
$GPGGA,080529.000,4549.7602,N,00114.6997,E,1,09,1.1,295.8,M,48.8,M,,0000*5B
$GPGSA,A,3,21,03,30,06,16,22,18,19,07,,,,2.0,1.1,1.7*32
$GPRMC,080529.000,A,4549.7602,N,00114.6997,E,15.66,92.25,050112,,*00
$GPGGA,080530.000,4549.7608,N,00114.7067,E,1,08,1.2,296.6,M,48.8,M,,0000*51
$GPGSA,A,3,21,03,30,06,16,22,18,19,,,,,2.6,1.2,2.3*37
$GPGSV,3,1,12,06,81,349,44,03,70,306,44,16,68,201,44,18,42,083,44*76
$GPGSV,3,2,12,30,39,175,28,22,39,143,21,21,36,057,42,19,35,288,42*7C
$GPGSV,3,3,12,07,16,310,,08,03,339,,15,02,051,,11,01,249,*76
$GPRMC,080530.000,A,4549.7608,N,00114.7067,E,17.98,82.91,050112,,*08
$GPGGA,080531.000,4549.7628,N,00114.7139,E,1,08,1.3,296.5,M,48.8,M,,0000*5A
$GPGSA,A,3,21,03,06,16,22,18,19,07,,,,,2.2,1.3,1.8*3E
$GPRMC,080531.000,A,4549.7628,N,00114.7139,E,19.93,80.21,050112,,*0D
$GPGGA,080532.000,4549.7640,N,00114.7221,E,1,08,1.3,297.0,M,48.8,M,,0000*59
$GPGSA,A,3,21,03,06,16,22,18,19,07,,,,,2.2,1.3,1.8*3E
$GPRMC,080532.000,A,4549.7640,N,00114.7221,E,21.43,80.26,050112,,*0B
$GPGGA,080533.000,4549.7653,N,00114.7307,E,1,07,1.4,297.0,M,48.8,M,,0000*57
$GPGSA,A,3,21,03,06,16,22,18,19,,,,,,2.8,1.4,2.4*3B
$GPRMC,080533.000,A,4549.7653,N,00114.7307,E,22.45,79.66,050112,,*0A
$GPGGA,080534.000,4549.7662,N,00114.7396,E,1,07,1.3,296.8,M,48.8,M,,0000*54
$GPGSA,A,3,21,03,06,16,18,19,30,,,,,,2.7,1.3,2.3*37
$GPRMC,080534.000,A,4549.7662,N,00114.7396,E,23.14,79.88,050112,,*02
$GPGGA,080535.000,4549.7673,N,00114.7487,E,1,07,1.3,296.9,M,48.8,M,,0000*53
$GPGSA,A,3,21,03,06,16,18,19,30,,,,,,2.7,1.3,2.3*37
$GPGSV,3,1,12,06,81,349,44,03,70,306,44,16,68,201,44,18,42,083,44*76
$GPGSV,3,2,12,30,39,175,39,22,39,143,,21,36,057,42,19,35,288,43*7E
$GPGSV,3,3,12,07,16,310,,08,03,339,,15,02,051,,11,01,249,*76
$GPRMC,080535.000,A,4549.7673,N,00114.7487,E,23.41,80.08,050112,,*0A
$GPGGA,080536.000,4549.7684,N,00114.7581,E,1,07,1.4,297.7,M,48.8,M,,0000*57
$GPGSA,A,3,21,03,22,06,16,18,19,,,,,,2.8,1.4,2.4*3B
$GPRMC,080536.000,A,4549.7684,N,00114.7581,E,23.11,80.46,050112,,*09
$GPGGA,080537.000,4549.7701,N,00114.7669,E,1,08,1.3,297.8,M,48.8,M,,0000*58
$GPGSA,A,3,21,03,22,06,16,07,18,19,,,,,2.2,1.3,1.8*3E
$GPRMC,080537.000,A,4549.7701,N,00114.7669,E,22.31,80.85,050112,,*0D
$GPGGA,080538.000,4549.7712,N,00114.7754,E,1,08,1.3,298.0,M,48.8,M,,0000*5D
$GPGSA,A,3,21,03,22,06,16,07,18,19,,,,,2.2,1.3,1.8*3E
$GPRMC,080538.000,A,4549.7712,N,00114.7754,E,20.89,80.86,050112,,*0D
$GPGGA,080539.000,4549.7721,N,00114.7833,E,1,09,1.1,298.2,M,48.8,M,,0000*53
$GPGSA,A,3,21,03,22,30,06,16,07,18,19,,,,2.0,1.1,1.7*32
$GPRMC,080539.000,A,4549.7721,N,00114.7833,E,19.20,80.83,050112,,*0E
$GPGGA,080540.000,4549.7732,N,00114.7906,E,1,09,1.1,298.1,M,48.8,M,,0000*5B
$GPGSA,A,3,21,03,22,30,06,16,07,18,19,,,,2.0,1.1,1.7*32
$GPGSV,3,1,12,06,81,349,44,03,70,306,44,16,68,201,44,18,42,083,44*76
$GPGSV,3,2,12,30,39,175,33,22,39,143,32,21,36,057,42,19,35,288,43*75
$GPGSV,3,3,12,07,16,310,37,08,03,339,,15,02,051,,11,01,249,*72
$GPRMC,080540.000,A,4549.7732,N,00114.7906,E,18.47,84.34,050112,,*0D
$GPGGA,080541.000,4549.7738,N,00114.7966,E,1,09,1.1,297.9,M,48.8,M,,0000*51
$GPGSA,A,3,21,03,22,30,06,16,07,18,19,,,,2.0,1.1,1.7*32
$GPRMC,080541.000,A,4549.7738,N,00114.7966,E,12.85,81.66,050112,,*06
$GPGGA,080542.000,4549.7742,N,00114.8011,E,1,08,1.2,298.0,M,48.8,M,,0000*5D
$GPGSA,A,3,21,03,22,30,06,16,18,19,,,,,2.6,1.2,2.3*37
$GPRMC,080542.000,A,4549.7742,N,00114.8011,E,9.91,84.85,050112,,*39
$GPGGA,080543.000,4549.7740,N,00114.8043,E,1,08,1.2,298.0,M,48.8,M,,0000*59
$GPGSA,A,3,21,03,22,30,06,16,18,19,,,,,2.6,1.2,2.3*37
$GPRMC,080543.000,A,4549.7740,N,00114.8043,E,7.08,116.67,050112,,*05
$GPGGA,080544.000,4549.7725,N,00114.8061,E,1,08,1.2,297.9,M,48.8,M,,0000*5B
$GPGSA,A,3,21,03,22,30,06,16,18,19,,,,,2.6,1.2,2.3*37
$GPRMC,080544.000,A,4549.7725,N,00114.8061,E,7.45,157.84,050112,,*00
$GPGGA,080545.000,4549.7701,N,00114.8067,E,1,08,1.2,297.6,M,48.8,M,,0000*55
$GPGSA,A,3,21,03,22,30,06,16,18,19,,,,,2.6,1.2,2.3*37
$GPGSV,3,1,12,06,81,349,44,03,70,306,44,16,68,201,44,18,42,083,33*76
$GPGSV,3,2,12,30,39,175,45,22,39,143,45,21,36,057,41,19,35,288,43*77
$GPGSV,3,3,12,07,16,310,,08,03,339,,15,02,051,,11,01,249,*76
$GPRMC,080545.000,A,4549.7701,N,00114.8067,E,10.10,174.54,050112,,*3B
$GPGGA,080546.000,4549.7668,N,00114.8069,E,1,09,1.1,297.7,M,48.8,M,,0000*55
$GPGSA,A,3,21,03,22,30,06,16,07,18,19,,,,2.0,1.1,1.7*32
$GPRMC,080546.000,A,4549.7668,N,00114.8069,E,12.76,178.09,050112,,*3E
$GPGGA,080547.000,4549.7628,N,00114.8069,E,1,09,1.1,297.3,M,48.8,M,,0000*54
$GPGSA,A,3,21,03,22,30,06,16,07,18,19,,,,2.0,1.1,1.7*32
$GPRMC,080547.000,A,4549.7628,N,00114.8069,E,14.95,178.61,050112,,*3E
$GPGGA,080548.000,4549.7583,N,00114.8072,E,1,09,1.1,297.4,M,48.8,M,,0000*54
$GPGSA,A,3,21,03,22,30,06,16,07,18,19,,,,2.0,1.1,1.7*32
$GPRMC,080548.000,A,4549.7583,N,00114.8072,E,16.75,176.24,050112,,*3A
$GPGGA,080549.000,4549.7533,N,00114.8075,E,1,09,1.1,297.4,M,48.8,M,,0000*59
$GPGSA,A,3,21,03,22,30,06,16,07,18,19,,,,2.0,1.1,1.7*32
$GPRMC,080549.000,A,4549.7533,N,00114.8075,E,17.75,177.62,050112,,*35
$GPGGA,080550.000,4549.7482,N,00114.8077,E,1,08,1.1,297.4,M,48.8,M,,0000*59
$GPGSA,A,3,21,03,22,30,06,16,07,18,,,,,2.0,1.1,1.7*3A
$GPGSV,3,1,12,06,81,349,44,03,70,306,44,16,68,201,44,18,42,083,41*73
$GPGSV,3,2,12,30,39,175,45,22,39,143,45,21,36,057,38,19,35,288,24*78
$GPGSV,3,3,12,07,16,310,36,08,03,339,,15,02,051,,11,01,249,*73
$GPRMC,080550.000,A,4549.7482,N,00114.8077,E,18.26,177.78,050112,,*36
$GPGGA,080551.000,4549.7430,N,00114.8079,E,1,07,2.5,297.3,M,48.8,M,,0000*50
$GPGSA,A,3,21,03,22,30,06,16,18,,,,,,5.8,2.5,5.3*35
$GPRMC,080551.000,A,4549.7430,N,00114.8079,E,18.22,177.98,050112,,*3A
$GPGGA,080552.000,4549.7380,N,00114.8079,E,1,08,1.2,297.0,M,48.8,M,,0000*57
$GPGSA,A,3,21,03,22,30,06,16,18,19,,,,,2.6,1.2,2.3*37
$GPRMC,080552.000,A,4549.7380,N,00114.8079,E,17.67,177.94,050112,,*37
$GPGGA,080553.000,4549.7331,N,00114.8081,E,1,08,1.2,296.8,M,48.8,M,,0000*52
$GPGSA,A,3,21,03,22,30,06,16,18,19,,,,,2.6,1.2,2.3*37
$GPRMC,080553.000,A,4549.7331,N,00114.8081,E,16.88,177.35,050112,,*30
$GPGGA,080554.000,4549.7284,N,00114.8083,E,1,08,1.2,296.7,M,48.8,M,,0000*57
$GPGSA,A,3,21,03,22,30,06,16,18,19,,,,,2.6,1.2,2.3*37
$GPRMC,080554.000,A,4549.7284,N,00114.8083,E,16.10,178.00,050112,,*32
$GPGGA,080555.000,4549.7241,N,00114.8084,E,1,08,1.2,296.6,M,48.8,M,,0000*59
$GPGSA,A,3,21,03,22,30,06,16,18,19,,,,,2.6,1.2,2.3*37
$GPGSV,3,1,12,06,81,352,44,03,70,307,45,16,67,201,44,18,42,082,41*77
$GPGSV,3,2,12,22,40,143,45,30,39,175,46,19,36,289,27,21,36,057,32*7E
$GPGSV,3,3,12,07,16,309,,08,03,338,,15,02,051,,11,02,249,*7C
$GPRMC,080555.000,A,4549.7241,N,00114.8084,E,14.78,177.90,050112,,*37
$GPGGA,080556.000,4549.7203,N,00114.8085,E,1,08,1.2,296.4,M,48.8,M,,0000*5F
$GPGSA,A,3,21,03,22,30,06,16,18,19,,,,,2.6,1.2,2.3*37
$GPRMC,080556.000,A,4549.7203,N,00114.8085,E,12.69,179.52,050112,,*35
$GPGGA,080557.000,4549.7171,N,00114.8085,E,1,08,1.2,296.2,M,48.8,M,,0000*5E
$GPGSA,A,3,21,03,22,30,06,16,18,19,,,,,2.6,1.2,2.3*37
$GPRMC,080557.000,A,4549.7171,N,00114.8085,E,10.34,180.46,050112,,*3B
$GPGGA,080558.000,4549.7144,N,00114.8086,E,1,09,1.1,296.0,M,48.8,M,,0000*54
$GPGSA,A,3,21,03,22,30,06,16,18,19,07,,,,2.0,1.1,1.7*32
$GPRMC,080558.000,A,4549.7144,N,00114.8086,E,9.10,174.82,050112,,*0C
$GPGGA,080559.000,4549.7122,N,00114.8094,E,1,09,1.1,295.8,M,48.8,M,,0000*5D
$GPGSA,A,3,21,03,22,30,06,16,18,19,07,,,,2.0,1.1,1.7*32
$GPRMC,080559.000,A,4549.7122,N,00114.8094,E,8.06,155.44,050112,,*01
$GPGGA,080600.000,4549.7107,N,00114.8111,E,1,09,1.1,295.7,M,48.8,M,,0000*56
$GPGSA,A,3,21,03,22,30,06,16,18,19,07,,,,2.0,1.1,1.7*32
$GPGSV,3,1,12,06,81,352,44,03,70,307,45,16,67,201,44,18,42,082,42*74
$GPGSV,3,2,12,22,40,143,46,30,39,175,46,19,36,289,39,21,36,057,34*74
$GPGSV,3,3,12,07,16,309,23,08,03,338,,15,02,051,,11,02,249,*7D
$GPRMC,080600.000,A,4549.7107,N,00114.8111,E,6.22,125.20,050112,,*08
$GPGGA,080601.000,4549.7101,N,00114.8131,E,1,09,1.1,295.7,M,48.8,M,,0000*53
$GPGSA,A,3,21,03,22,30,06,16,18,19,07,,,,2.0,1.1,1.7*32
$GPRMC,080601.000,A,4549.7101,N,00114.8131,E,5.20,103.06,050112,,*0C
$GPGGA,080602.000,4549.7098,N,00114.8153,E,1,08,1.2,296.1,M,48.8,M,,0000*52
$GPGSA,A,3,21,03,22,30,06,16,18,19,,,,,2.6,1.2,2.3*37
$GPRMC,080602.000,A,4549.7098,N,00114.8153,E,5.66,97.40,050112,,*36
$GPGGA,080603.000,4549.7096,N,00114.8179,E,1,08,1.2,296.2,M,48.8,M,,0000*56
$GPGSA,A,3,21,03,22,30,06,16,18,19,,,,,2.6,1.2,2.3*37
$GPRMC,080603.000,A,4549.7096,N,00114.8179,E,7.38,98.54,050112,,*32
$GPGGA,080604.000,4549.7092,N,00114.8212,E,1,08,1.2,296.2,M,48.8,M,,0000*5B
$GPGSA,A,3,21,03,22,30,06,16,18,19,,,,,2.6,1.2,2.3*37
$GPRMC,080604.000,A,4549.7092,N,00114.8212,E,9.36,99.43,050112,,*38
$GPGGA,080605.000,4549.7088,N,00114.8251,E,1,08,1.2,296.2,M,48.8,M,,0000*56
$GPGSA,A,3,21,03,22,30,06,16,18,19,,,,,2.6,1.2,2.3*37
$GPGSV,3,1,12,06,81,352,44,03,70,307,45,16,67,201,44,18,42,082,43*75
$GPGSV,3,2,12,22,40,143,36,30,39,175,30,19,36,289,46,21,36,057,32*7C
$GPGSV,3,3,12,07,16,309,,08,03,338,,15,02,051,,11,02,249,*7C
$GPRMC,080605.000,A,4549.7088,N,00114.8251,E,10.20,99.79,050112,,*03
$GPGGA,080606.000,4549.7084,N,00114.8292,E,1,08,1.2,296.2,M,48.8,M,,0000*56
$GPGSA,A,3,21,03,22,30,06,16,18,19,,,,,2.6,1.2,2.3*37
$GPRMC,080606.000,A,4549.7084,N,00114.8292,E,10.50,98.51,050112,,*0F
$GPGGA,080607.000,4549.7081,N,00114.8332,E,1,08,1.2,296.2,M,48.8,M,,0000*59
$GPGSA,A,3,21,03,22,30,06,16,18,19,,,,,2.6,1.2,2.3*37
$GPRMC,080607.000,A,4549.7081,N,00114.8332,E,9.85,98.59,050112,,*38
$GPGGA,080608.000,4549.7077,N,00114.8368,E,1,08,1.2,296.1,M,48.8,M,,0000*53
$GPGSA,A,3,21,03,22,30,06,16,18,19,,,,,2.6,1.2,2.3*37
$GPRMC,080608.000,A,4549.7077,N,00114.8368,E,8.42,98.04,050112,,*33
$GPGGA,080609.000,4549.7075,N,00114.8400,E,1,09,1.1,296.1,M,48.8,M,,0000*5B
